Name,Categories,Address,City,State,Postcode,Phone,Website,Email,Fax,latitude,longitude,ABN 2,ACN,Employees,Established,Licence No.,ABN Status,ABN,ABN Type,Country,Banner,Corporate,Corporate 2
TARNEIT PHARMACY,Chemist & Pharmacy Stores,412 Derrimut Rd,Tarneit,VIC,3029,(03) 8742 7717,http://www.tarneitpharmacy.com.au,tarneit@hcpharmacy.com.au,,-37.846854,144.689346,,,,,,Active,89 519 676 045,Business Name,AUS,Independents & Minors,Independents & Minors,Independents & Minors
Chemist Connect,Chemist & Pharmacy Stores,Shop 11 368 Hamilton Rd,Fairfield West,NSW,2165,(02) 9604 2758,https://aged-care.chemistconnect.com.au/store-locations,"prospect@chemistconnect.com.au,fairfield@chemistconnect.com.au,sandgate@chemistconnect.com.au,",,-33.86944,150.92299,,,,,,Active,74 135 268 030,Business Name,AUS,Independents & Minors,Independents & Minors,Independents & Minors
Chemist Connect,Chemist & Pharmacy Stores,2/ 3 Aldgate St,Prospect,NSW,2148,(02) 9631 0941,https://aged-care.chemistconnect.com.au/store-locations,"prospect@chemistconnect.com.au,fairfield@chemistconnect.com.au,sandgate@chemistconnect.com.au,",,-33.799481,150.926206,,,,,,Active,74 135 268 030,Business Name,AUS,Independents & Minors,Independents & Minors,Independents & Minors
Kanwal Village Pharmacy,Chemist & Pharmacy Stores,1/ 260 Wallarah Rd,Kanwal,NSW,2259,(02) 4392 5533,www.amcal.com.au,"platinum.service@signet.com.au,info@amcalrewards.com.au,kanwalvillage@amcal.net.au",,-33.253508,151.492851,73 682 899 462,,,,,Active,73 682 899 462,Business Name,AUS,Independents & Minors,Independents & Minors,Independents & Minors
Mornington Amcal Pharmacy,Chemist & Pharmacy Stores,113 Main St,Mornington,VIC,3931,(03) 5975 2554,http://www.amcal.com.au/,"platinum.service@signet.com.au,info@amcalrewards.com.au,",,-38.22015,145.03858,86 928 861 011,,,1965,,Active,17 643 845 827,Business Name,AUS,Amcal,SIG,Mergeco
Rosebud Plaza Amcal Pharmacy,Chemist & Pharmacy Stores,"Shop 8, Rosebud Plaza Shopping Centre, Boneo Rd",Rosebud,VIC,3939,(03) 5986 7299,https://www.amcal.com.au/,"platinum.service@signet.com.au,info@amcalrewards.com.au,",,-38.36111,144.891385,,,,,,Active,59 849 212 757,Business Name,AUS,Amcal,SIG,Mergeco
Derwent Park Pharmacy,Chemist & Pharmacy Stores,254 Main Rd,Derwent Park,TAS,7009,(03) 6272 6601,www.guardianpharmacies.com.au,"platinum.service@signet.com.au,montrose@guardianpharm.net",,-42.836598,147.286763,,101 890 537,Nov-20,1978,Aboriginal health services,Active,24 775 457 640,Other Name,AUS,Independents & Minors,Independents & Minors,Independents & Minors
Chemists Own,Chemist & Pharmacy Stores,96 Merrindale Dr,Croydon South,VIC,3136,1800 003 013,http://www.chemistsown.com.au/,"patient.safety@arrotex.com.au,",,-37.816433,145.29595,,,,,,Active,33 605 909 911,Business Name,AUS,Independents & Minors,Independents & Minors,Independents & Minors
Optimal Pharmacy Plus Ellenbrook,Chemist & Pharmacy Stores,"The Shops 59, Pinaster Pde",Ellenbrook,WA,6069,(08) 6296 5213,optimalpharmacyplus.com.au,"oppap@iinet.net.au,oppa@westnet.com.au,oppac@westnet.com.au,oppba@westnet.com.au,oppbeechboro@westnet.com.au,pharmacy@carineglades.com.au,oppc@westnet.com.au,oppd@westnet.com.au,oppdo@iinet.net.au,oppe@iinet.net.au,opphh@westnet.com.au,oppms@westnet.com.au,oppmi@westnet.com.au,oppn@westnet.com.au,oppq@westnet.com.au,oppsc@iinet.net.au,oppsl@iinet.net.au,oppsb@westnet.com.au,oppw@westnet.com.au,oppbv@iinet.net.au,oppco@westnet.com.au,opphhc@iinet.net.au,oppno@iinet.net.au,sc-oppwy@iinet.net.au,oppj@westnet.com.au,oppkk@iinet.net.au,oppr@iinet.net.au,oppstafford@iinet.net.au,oppap@iinet.net.auge,oppa@westnet.com.auge,oppac@westnet.com.auge,oppba@westnet.com.auge,oppc@westnet.com.auge,oppd@westnet.com.auge,oppdo@iinet.net.auge,oppe@iinet.net.auge,opphh@westnet.com.auge,oppms@westnet.com.auge,oppmi@westnet.com.auge,oppn@westnet.com.auge,oppq@westnet.com.auge,oppsc@iinet.net.auge,oppsl@iinet.net.auge,oppw@westnet.com.auge,oppbv@iinet.net.auge,oppco@westnet.com.auge,opphhc@iinet.net.auge,oppno@iinet.net.auge,sc-oppwy@iinet.net.auge,oppj@westnet.com.auge,oppkk@iinet.net.auge,oppr@iinet.net.auge,oppstafford@iinet.net.auge,admin@optimalsystems.com.au",,-31.788361,115.96708,,,,,,Active,26 880 026 316,Other Name,AUS,Independents & Minors,Independents & Minors,Independents & Minors
Optimal Pharmacy Plus Sunset Beach,Chemist & Pharmacy Stores,"Shp 5/ Sunset Shopping Plaza, 582 Chapman Road",Glenfield,WA,6532,(08) 9938 3274,https://optimalpharmacyplus.com.au/,"oppap@iinet.net.au,oppa@westnet.com.au,oppac@westnet.com.au,oppba@westnet.com.au,oppbeechboro@westnet.com.au,pharmacy@carineglades.com.au,oppc@westnet.com.au,oppd@westnet.com.au,oppdo@iinet.net.au,oppe@iinet.net.au,opphh@westnet.com.au,oppms@westnet.com.au,oppmi@westnet.com.au,oppn@westnet.com.au,oppq@westnet.com.au,oppsc@iinet.net.au,oppsl@iinet.net.au,oppsb@westnet.com.au,oppw@westnet.com.au,oppbv@iinet.net.au,oppco@westnet.com.au,opphhc@iinet.net.au,oppno@iinet.net.au,sc-oppwy@iinet.net.au,oppj@westnet.com.au,oppkk@iinet.net.au,oppr@iinet.net.au,oppstafford@iinet.net.au,oppap@iinet.net.auge,oppa@westnet.com.auge,oppac@westnet.com.auge,oppba@westnet.com.auge,oppc@westnet.com.auge,oppd@westnet.com.auge,oppdo@iinet.net.auge,oppe@iinet.net.auge,opphh@westnet.com.auge,oppms@westnet.com.auge,oppmi@westnet.com.auge,oppn@westnet.com.auge,oppq@westnet.com.auge,oppsc@iinet.net.auge,oppsl@iinet.net.auge,oppw@westnet.com.auge,oppbv@iinet.net.auge,oppco@westnet.com.auge,opphhc@iinet.net.auge,oppno@iinet.net.auge,sc-oppwy@iinet.net.auge,oppj@westnet.com.auge,oppkk@iinet.net.auge,oppr@iinet.net.auge,oppstafford@iinet.net.auge,",,-28.722878,114.627297,91 536 597 229,,1-Oct,2006,,Active,58 752 984 995,Business Name,AUS,Independents & Minors,Independents & Minors,Independents & Minors
Optimal Pharmacy Plus Sunset Beach,Chemist & Pharmacy Stores,,Glenfield,WA,6532,(08) 9938 3274,https://optimalpharmacyplus.com.au/,"oppap@iinet.net.au,oppa@westnet.com.au,oppac@westnet.com.au,oppba@westnet.com.au,oppbeechboro@westnet.com.au,pharmacy@carineglades.com.au,oppc@westnet.com.au,oppd@westnet.com.au,oppdo@iinet.net.au,oppe@iinet.net.au,opphh@westnet.com.au,oppms@westnet.com.au,oppmi@westnet.com.au,oppn@westnet.com.au,oppq@westnet.com.au,oppsc@iinet.net.au,oppsl@iinet.net.au,oppsb@westnet.com.au,oppw@westnet.com.au,oppbv@iinet.net.au,oppco@westnet.com.au,opphhc@iinet.net.au,oppno@iinet.net.au,sc-oppwy@iinet.net.au,oppj@westnet.com.au,oppkk@iinet.net.au,oppr@iinet.net.au,oppstafford@iinet.net.au,oppap@iinet.net.auge,oppa@westnet.com.auge,oppac@westnet.com.auge,oppba@westnet.com.auge,oppc@westnet.com.auge,oppd@westnet.com.auge,oppdo@iinet.net.auge,oppe@iinet.net.auge,opphh@westnet.com.auge,oppms@westnet.com.auge,oppmi@westnet.com.auge,oppn@westnet.com.auge,oppq@westnet.com.auge,oppsc@iinet.net.auge,oppsl@iinet.net.auge,oppw@westnet.com.auge,oppbv@iinet.net.auge,oppco@westnet.com.auge,opphhc@iinet.net.auge,oppno@iinet.net.auge,sc-oppwy@iinet.net.auge,oppj@westnet.com.auge,oppkk@iinet.net.auge,oppr@iinet.net.auge,oppstafford@iinet.net.auge,",,-28.6855364,114.6139102,,,,,,Active,58 752 984 995,Business Name,AUS,Independents & Minors,Independents & Minors,Independents & Minors
Moonee Beach Pharmacy,Chemist & Pharmacy Stores,Shop 10 Moonee Beach Shopping Centre,Moonee Beach,NSW,2450,(02) 6656 4044,http://www.mooneebeachpharmacy.com.au/,"moonee@people.net.au,",,-30.2070568,153.1537348,,,,,,Active,16 408 620 467,Trading Name,AUS,Independents & Minors,Independents & Minors,Independents & Minors
McBeath Pharmacy,Chemist & Pharmacy Stores,"Main Entrance Westmead Hospital, Corner Hawkesbury and Darcy Roads",Westmead,NSW,2145,(02) 8865 7797,https://www.mcbeath.com.au/,"mcbeath.westmead@mcbeath.com.au,",,-33.803577,150.982922,,,,,,Active,67 063 102 701,Trading Name,AUS,Independents & Minors,Independents & Minors,Independents & Minors
South Yarra Pharmacy,Chemist & Pharmacy Stores,81-83 Toorak Rd,South Yarra,VIC,3141,(03) 9820 4101,http://southyarrapharmacy.com.au/,"info@southyarrapharmacy.com.au,southyarrapharmacy1@gmail.com,platinum.service@signet.com.au,info@southyarrapharmacy.com.au",,-37.838524,144.98918,61 828 399 049,,,,,Active,91 600 310 576,Business Name,AUS,Independents & Minors,Independents & Minors,Independents & Minors
Shepparton Amcal Pharmacy,Chemist & Pharmacy Stores,310- 312 Wyndham St,Shepparton,VIC,3630,(03) 5821 2596,sheppartonpharmacy.com.au,info@sheppartonpharmacy.com.au,,-36.38003,145.39906,49 375 477 101,,21-50,1979,Diabetes Australia NDSS,Active,49 375 477 101,Business Name,AUS,Amcal,SIG,Mergeco
Cate's Chemist Hyde Park,Chemist & Pharmacy Stores,87 Charters Towers Rd,Hyde Park,QLD,4812,(07) 4417 3404,www.cateschemist.com.au,"garbutt@cateschemist.com.au,hydepark@cateschemist.com.au,taihs@cateschemist.com.au,headoffice@cateschemist.com.au,hydepark@cateschemist.com.au",,-19.274623,146.801106,28 626 453 152,143 699 987,,,,Active,77 616 990 973,Business Name,AUS,Independents & Minors,Independents & Minors,Independents & Minors
Fountain St Chemist,Chemist & Pharmacy Stores,2-10 Fountain St,Alexandria,NSW,2015,(02) 8095 0312,http://www.fountainstchemist.com.au,fountainstchemist@hotmail.com,,-33.902629,151.194928,,,,,,Active,56 142 235 185,Business Name,AUS,Independents & Minors,Independents & Minors,Independents & Minors
Coomera Square Chempro Chemist,Chemist & Pharmacy Stores,"Shop B 5, Coomera City Centre, 31-39 Kristins Lane",Upper Coomera,QLD,4209,(07) 5573 1407,www.chempro.com.au,"chemproonline@chempro.com.au,coomerasquare@chempro.com.au",,-27.852024,153.299838,,,,,Natural health,Active,68 552 043 248,Business Name,AUS,Independents & Minors,Independents & Minors,Independents & Minors
Q Super Centre Chempro Chemist,Chemist & Pharmacy Stores,"Shop C 26- C 30, Q Super Centre, Cnr Bermuda and Markeri St",Mermaid Waters,QLD,4219,(07) 5578 6933,www.chempro.com.au,"chemproonline@chempro.com.au,mermaidwaters@chempro.com.au",,-28.048321,153.407197,,,,,,Active,39 664 376 640,Business Name,AUS,Independents & Minors,Independents & Minors,Independents & Minors
Friendly Pharmacy,Chemist & Pharmacy Stores,15/380 Pennant Hills Rd,Pennant Hills,NSW,2120,(02) 9648 0307,http://www.friendlypharmacy.com.au/,admin@friendlypharmacy.com.au,,-33.739162,151.068907,,,,,,Active,38 087 822 151,Business Name,AUS,Independents & Minors,Independents & Minors,Independents & Minors
Bluewater Pharmacy,Chemist & Pharmacy Stores,2 Purono Pkwy,Yabulu,QLD,4818,(07) 4778 6233,https://www.bluewaterpharmacy.com.au/,"admin@bluewaterpharmacy.com.au,frank@bluewaterpharmacy.com.au,admin@bluewaterpharmacy.com.au",,-19.180333,146.587459,,,,1996,,Active,65 331 381 085,Business Name,AUS,Independents & Minors,Independents & Minors,Independents & Minors
All Saints Pharmacy,Chemist & Pharmacy Stores,393 Burwood Rd,Belmore,NSW,2192,(02) 9759 2624,,,,-33.91809,151.0891,,,,,,Active,90 155 496 307,Business Name,AUS,Independents & Minors,Independents & Minors,Independents & Minors
Amcal Max Night & Day Casuarina,Chemist & Pharmacy Stores,,Casuarina,NT,0811,(08) 8927 7857,www.amcalmaxcasuarina.com.au,casuarina@amcal.net.au,,-12.3756503,130.8822128,30 009 626 377,,,1984,,Active,30 009 626 377,Business Name,AUS,Amcal,SIG,Mergeco
Amcal Pharmacy Craigieburn,Chemist & Pharmacy Stores,340 Craigeburn Rd,Craigieburn,VIC,3064,(03) 9308 4981,,,,-37.592502,144.912461,,,,,,Active,33 165 288 157,Business Name,AUS,Amcal,SIG,Mergeco
Andrews Pharmacy,Chemist & Pharmacy Stores,23 Mackenzie Ave Off Reddall Parade,Mt Warrigal,NSW,2528,(02) 4297 7197,,,,-34.548005,150.837141,,,,,,Active,56 348 106 233,Business Name,AUS,Independents & Minors,Independents & Minors,Independents & Minors
Andrews Pharmacy,Chemist & Pharmacy Stores,23 Mackenzie Ave (Off Reddall Parade),Mt Warrigal,NSW,2528,(02) 4297 7197,,,,-34.548005,150.837141,,,,,,Active,56 348 106 233,Business Name,AUS,Independents & Minors,Independents & Minors,Independents & Minors
Andrews Pharmacy,Chemist & Pharmacy Stores,132 Burdekin Dr,Albion Park,NSW,2527,(02) 4256 8820,,,,-34.588225,150.786228,,,,,,Active,56 348 106 233,Business Name,AUS,Independents & Minors,Independents & Minors,Independents & Minors
Andrews Pharmacy,Chemist & Pharmacy Stores,437 Princess Highway,Corrimal,NSW,2518,(02) 4284 4445,,andrewpharm@hotmail.com,,-34.38241,150.89481,,,,,,Active,56 348 106 233,Business Name,AUS,Independents & Minors,Independents & Minors,Independents & Minors
Argyle Street Pharmacy,Chemist & Pharmacy Stores,"Shop 13, Westfield Shoppingtown",Parramatta,NSW,2150,(02) 9687 7401,,aspharm@bigpond.net.au,,-33.815237,151.003125,,,,,,Active,13 625 220 135,Business Name,AUS,Independents & Minors,Independents & Minors,Independents & Minors
ASP Medical,Chemist & Pharmacy Stores,,Parramatta,NSW,2150,(02) 9687 7401,https://www.aspmedical.com.au/,contact@aspmedical.com.au,,-33.8152373,151.003125,13 625 220 135,625 220 135,Nov-20,,,Active,13 625 220 135,Business Name,AUS,Independents & Minors,Independents & Minors,Independents & Minors
Atkinsons Armadale Pharmacy,Chemist & Pharmacy Stores,201 Jull St,Armadale,WA,6112,(08) 9399 2162,,,,-32.152267,116.014439,,,,,,Active,18 314 287 390,Business Name,AUS,Independents & Minors,Independents & Minors,Independents & Minors
Atrium Plaza Pharmacy,Chemist & Pharmacy Stores,,Herston,QLD,4006,(07) 3854 0474,,atrium@nunet.com.au,,-27.4478507,153.0291483,77 030 430 931,,1-Oct,,,Active,82 101 682 268,Business Name,AUS,Independents & Minors,Independents & Minors,Independents & Minors
Avoca Beach Pharmacy,Chemist & Pharmacy Stores,174 Avoca Dr,Avoca Beach,NSW,2251,(02) 4382 1314,,,,-33.465595,151.432884,,,,,,Active,97 224 061 148,Trading Name,AUS,Independents & Minors,Independents & Minors,Independents & Minors
Bacchus Marsh Village UFS Pharmacy,Chemist & Pharmacy Stores,"Shop 66, Bacchus Marsh Village, Main Street",Bacchus Marsh,VIC,3340,(03) 5367 8600,www.ufs.com.au/stores/bacchus-marsh-village-ufs-pharmacy,bmarshvillage@ufs.com.au,,-37.675077,144.439473,49 087 822 259,,,,,Active,49 087 822 259,Business Name,AUS,Independents & Minors,Independents & Minors,Independents & Minors
Balgownie Village Pharmacy,Chemist & Pharmacy Stores,158 Balgownie Rd,Balgownie,NSW,2519,(02) 4284 4027,,,,-34.388371,150.877846,,,,,,Active,35 606 917 899,Business Name,AUS,Independents & Minors,Independents & Minors,Independents & Minors
Bamaga Pharmacy,Chemist & Pharmacy Stores,Lot 105 Adidi St,Bamaga,QLD,4876,(07) 4083 0224,https://www.facebook.com/BamagaPharmacy/,manager@bamagapharmacy.com.au,,-10.88955,142.387845,,,,,,Active,32 781 986 259,Business Name,AUS,Independents & Minors,Independents & Minors,Independents & Minors
Barts The Chemist,Chemist & Pharmacy Stores,330 South Rd,Hampton East,VIC,3188,(03) 9555 3292,,bartsthechemist@nunet.com.au,,-37.933165,145.031666,,,,,,Active,13 560 680 474,Business Name,AUS,Independents & Minors,Independents & Minors,Independents & Minors
Bayview Pharmacy,Chemist & Pharmacy Stores,10 Marine Tce,Burnie,TAS,7320,(03) 6431 1077,,,,-41.052322,145.907713,,,,,,Active,57 663 521 938,Business Name,AUS,Independents & Minors,Independents & Minors,Independents & Minors
Bayview Pharmacy,Chemist & Pharmacy Stores,Shop 7 101 Valley Way,Mt Cotton,QLD,4165,(07) 3829 9300,,,,-27.636905,153.24872,,,,,,Active,57 663 521 938,Business Name,AUS,Independents & Minors,Independents & Minors,Independents & Minors
Bayview Pharmacy,Chemist & Pharmacy Stores,Bayview Shopng Cntr Shop 7 Valley Way,Mt Cotton,QLD,4165,(07) 3829 9300,,,,-27.636393,153.243796,63 633 756 198,,,,,Active,57 663 521 938,Business Name,AUS,Independents & Minors,Independents & Minors,Independents & Minors
Beaumaris Pharmacy,Chemist & Pharmacy Stores,1A East Con,Beaumaris,VIC,3193,(03) 9589 2676,,,,-37.986171,145.034468,,,,,,Active,44 995 328 293,Trading Name,AUS,Independents & Minors,Independents & Minors,Independents & Minors
BioPharm Compounding,Chemist & Pharmacy Stores,Ground Floor 34 High St,Southport,QLD,4215,(07) 5555 7505,,,,-27.97042,153.40987,,,,,,Active,11 108 276 133,Business Name,AUS,Independents & Minors,Independents & Minors,Independents & Minors
Black & White Pharmacy,Chemist & Pharmacy Stores,337 Hume Hwy,Liverpool,NSW,2170,(02) 9602 3145,,,,-33.93076,150.9172,,,,,,Active,12 995 149 717,Trading Name,AUS,Independents & Minors,Independents & Minors,Independents & Minors
Blairgowrie Pharmacy,Chemist & Pharmacy Stores,2823 Point Nepean Rd,Blairgowrie,VIC,3942,(03) 5988 8845,,blairgowrie.pharmacy@nunet.com.au,,-38.361523,144.779654,81 388 079 500,,,,,Active,81 388 079 500,Trading Name,AUS,Independents & Minors,Independents & Minors,Independents & Minors
Blues Point Pharmacy,Chemist & Pharmacy Stores,1/ 137 Blues Point Rd,McMahons Point,NSW,2060,(02) 8920 1120,,,,-33.8440409,151.2044693,,,,,,Active,27 525 547 953,Other Name,AUS,Independents & Minors,Independents & Minors,Independents & Minors
Boulevarde Pharmacy,Chemist & Pharmacy Stores,170 The Boulevarde,Fairfield Heights,NSW,2165,(02) 9724 2211,,,,-33.864758,150.938715,,,,,,Active,88 657 226 509,Business Name,AUS,Independents & Minors,Independents & Minors,Independents & Minors
Bracken Ridge Pharmacy,Chemist & Pharmacy Stores,Shop 1 154 Barrett St,Bracken Ridge,QLD,4017,(07) 3269 0788,,brpharmacy1@hotmail.com,,-27.31946,153.04199,,,,,,Active,55 062 580 445,Business Name,AUS,Independents & Minors,Independents & Minors,Independents & Minors
Bremer Bay Pharmacy,Chemist & Pharmacy Stores,7 Mary St,Bremer Bay,WA,6338,(08) 9837 4942,http://www.jerramungup.wa.gov.au/directory/doctors-dentists-medical-centres-health-services-pharmacies/136/,bremerbaypharmacy@gmail.com,,-34.392349,119.379011,,,,,,Active,57 656 504 228,Business Name,AUS,Independents & Minors,Independents & Minors,Independents & Minors
Broadwater Pharmacy,Chemist & Pharmacy Stores,15 Brisbane Rd,Biggera Waters,QLD,4216,(07) 5537 1097,,,,-27.93723,153.405886,,,,,,Active,73 285 692 936,Business Name,AUS,Independents & Minors,Independents & Minors,Independents & Minors
Broadway Fair Pharmacy,Chemist & Pharmacy Stores,Shop 22 / 88 Broadway,Crawley,WA,6009,(08) 9386 1355,,stockcontrol@broadwayfairpharmacy.com.au,,-31.98389,115.81509,,,,,,Active,55 046 797 195,Business Name,AUS,Independents & Minors,Independents & Minors,Independents & Minors
Burdekin Park Pharmacy,Chemist & Pharmacy Stores,94 George St,Singleton,NSW,2330,(02) 6572 1481,,,,-32.563383,151.176623,,,,,,Active,19 937 656 753,Trading Name,AUS,Independents & Minors,Independents & Minors,Independents & Minors
Burnley Pharmacy,Chemist & Pharmacy Stores,394 Burnley St,Richmond,VIC,3121,(03) 9428 2006,https://www.facebook.com/pg/Burnley-Pharmacy-551447385059007/about/?ref=page_internal,,,-37.82596,145.00685,,,,,,Active,87 172 465 739,Trading Name,AUS,Independents & Minors,Independents & Minors,Independents & Minors
Cabramatta East Day & Night Pharmacy,Chemist & Pharmacy Stores,139 Cabramatta Rd,Cabramatta,NSW,2166,(02) 9725 6388,,,,-33.895059,150.939683,,,,,,Active,44 626 251 410,Business Name,AUS,Independents & Minors,Independents & Minors,Independents & Minors
Cain's Pharmacy,Chemist & Pharmacy Stores,63 Yandilla St,Pittsworth,QLD,4356,(07) 4693 1028,,,,-27.715373,151.635075,97 020 893 459,,1-Oct,,,Active,80 460 633 873,Trading Name,AUS,Independents & Minors,Independents & Minors,Independents & Minors
Callaghan Campus Pharmacy,Chemist & Pharmacy Stores,"Shop 110b Shortland Building,Union Lane, University Of Newcastle Callaghan Nsw 230",Callaghan,NSW,2308,(02) 4968 8070,www.ccpharmacy.com.au,admin@ccpharmacy.com.au,,-32.896989,151.700715,79 310 424 126,,,2013,,Active,89 001 589 859,Business Name,AUS,Independents & Minors,Independents & Minors,Independents & Minors
Calwell Pharmacy,Chemist & Pharmacy Stores,12 Sangster Pl,Wanniassa,ACT,2903,(02) 6292 8200,,,,-35.391278,149.0855,,,,,,Active,31 394 188 662,Business Name,AUS,Independents & Minors,Independents & Minors,Independents & Minors
Canley Vale Pharmacy,Chemist & Pharmacy Stores,10 Canley Vale Rd,Canley Vale,NSW,2166,(02) 9724 1807,,,,-33.887346,150.942849,86 293 476 236,,,,,Active,17 135 549 664,Trading Name,AUS,Independents & Minors,Independents & Minors,Independents & Minors
Caringbah Pharmacy,Chemist & Pharmacy Stores,Shop 1 42 President Ave,Caringbah,NSW,2229,(02) 9524 9121,,,,-34.04319,151.12102,,,,,,Active,88 598 377 595,Trading Name,AUS,Independents & Minors,Independents & Minors,Independents & Minors
Carlingford Mediadvice Pharmacy,Chemist & Pharmacy Stores,Shop 1/ 326 Pennant Hills Rd,Carlingford,NSW,2118,(02) 9871 4272,,,,-33.783201,151.047993,,,,,,Active,49 613 621 005,Business Name,AUS,Independents & Minors,Independents & Minors,Independents & Minors
Carlton Day & Night Chemist,Chemist & Pharmacy Stores,307A Princes Hwy,Carlton,NSW,2218,(02) 9587 5759,,,,-33.976123,151.125433,,,,,,Active,97 532 652 664,Business Name,AUS,Independents & Minors,Independents & Minors,Independents & Minors
Carrig Chemists,Chemist & Pharmacy Stores,,Park Holme,SA,5043,(08) 8374 0400,,,,-34.9947832,138.5536446,,,,,,Active,82 007 516 976,Trading Name,AUS,Independents & Minors,Independents & Minors,Independents & Minors
Carrig Chemists,Chemist & Pharmacy Stores,Arnald Centre,Kilkenny,SA,5009,(08) 8268 2504,,,,-34.87377,138.54947,,,,,A range of products and services,Active,82 007 516 976,Trading Name,AUS,Independents & Minors,Independents & Minors,Independents & Minors
Centennial Plaza Pharmacy,Chemist & Pharmacy Stores,300 Elizabeth St,Surry Hills,NSW,2010,(02) 9281 9331,,,,-33.883049,151.208828,,,,,,Active,14 543 257 260,Trading Name,AUS,Independents & Minors,Independents & Minors,Independents & Minors
Chemist Warehouse Bendigo,Chemist & Pharmacy Stores,43 Mitchell St,Bendigo,VIC,3550,(03) 5443 4988,,,,-36.76068,144.280141,,,,,,Active,74 557 268 164,Business Name,AUS,Chemist Warehouse,CWG,Mergeco
Chemist Warehouse Brunswick,Chemist & Pharmacy Stores,429- 433 Sydney Rd,Brunswick,VIC,3056,(03) 9380 5657,,,,-37.767261,144.96164,,,,,,Active,84 423 476 810,Business Name,AUS,Chemist Warehouse,CWG,Mergeco
Chemist Warehouse Craigieburn,Chemist & Pharmacy Stores,Shop 5 1 to 9 Mareeba Way,Craigieburn,VIC,3064,(03) 9303 8022,https://www.chemistwarehouse.com.au/,,,-37.583274,144.919551,,,,,,Active,69 896 636 024,Business Name,AUS,Chemist Warehouse,CWG,Mergeco
Chemist Warehouse Eaglehawk,Chemist & Pharmacy Stores,162- 170 Eaglehawk Rd,Long Gully,VIC,3550,(03) 5441 1255,,,,-36.746123,144.258314,,,,,,Active,38 417 071 447,Business Name,AUS,Chemist Warehouse,CWG,Mergeco
Chemist Warehouse Epping,Chemist & Pharmacy Stores,Shop 15/ 371 Dalton Rd,Epping,VIC,3076,(03) 9408 8944,,,,-37.65907,145.03,,,,,,Active,83 811 096 289,Business Name,AUS,Chemist Warehouse,CWG,Mergeco
Chemist Warehouse Epping,Chemist & Pharmacy Stores,58 Rawson St,Epping,NSW,2121,(02) 9876 5536,,,,-33.77249,151.08089,,,,,,Active,83 811 096 289,Business Name,AUS,Chemist Warehouse,CWG,Mergeco
Chemist Warehouse Epping (VIC),Chemist & Pharmacy Stores,"Shop 15 Dalton Village Shopping Centre, 371 Dalton Rd",Epping,VIC,3076,(03) 9408 8944,,,,-37.658952,145.029888,,,,,,Active,14 609 428 552,Business Name,AUS,Chemist Warehouse,CWG,Mergeco
Chemist Warehouse Epping Homemaker Centre,Chemist & Pharmacy Stores,Shop 11 560-650 High St,Epping,VIC,3076,(03) 9408 6363,https://rsvp.chemistwarehouse.com.au/,info@chemistwarehouse.com.au,,-37.654084,145.023801,,,,,,Active,37 411 957 108,Business Name,AUS,Chemist Warehouse,CWG,Mergeco
Chemist Warehouse Glen Waverley,Chemist & Pharmacy Stores,263 Springvale Rd,Glen Waverley,VIC,3150,(03) 9802 9977,,,,-37.87918,145.16541,,,,,,Active,90 960 476 273,Business Name,AUS,Chemist Warehouse,CWG,Mergeco
Chemist Warehouse Greensborough,Chemist & Pharmacy Stores,48-50 Main St,Greensborough,VIC,3088,(03) 9435 7455,https://www.chemistwarehouse.com.au/,,,-37.703925,145.104234,,,,,,Active,44 087 648 913,Business Name,AUS,Chemist Warehouse,CWG,Mergeco
Chemist Warehouse Moonee Ponds,Chemist & Pharmacy Stores,88- 92 Puckle St,Moonee Ponds,VIC,3039,(03) 9375 4300,,,,-37.76655,144.921802,,,,,,Active,44 087 648 913,Business Name,AUS,Chemist Warehouse,CWG,Mergeco
Chemist Warehouse Neutral Bay,Chemist & Pharmacy Stores,Sh 1 to 3 154 to 158 Military Rd,Neutral Bay,NSW,2090,(02) 9953 5465,https://www.chemistwarehouse.com.au/,,,-33.830423,151.221131,,,,,,Active,22 396 743 416,Business Name,AUS,Chemist Warehouse,CWG,Mergeco
Chemist Warehouse Northfield,Chemist & Pharmacy Stores,329 Hampstead Rd,Northfield,SA,5085,(08) 8262 9733,,,,-34.851607,138.617942,,,,,,Active,21 769 521 536,Other Name,AUS,Chemist Warehouse,CWG,Mergeco
Chemist Warehouse Pennant Hills,Chemist & Pharmacy Stores,108 To 110 Yarrara Road,Pennant Hills,NSW,2120,(02) 9484 1055,https://www.chemistwarehouse.com.au,info@chemistwarehouse.com.au,,-33.738658,151.071104,,,,,,Active,53 574 428 848,Business Name,AUS,Chemist Warehouse,CWG,Mergeco
Chemist Warehouse Strathfield,Chemist & Pharmacy Stores,"Shop 1, 56-60 The Boulevarde",Strathfield,NSW,2135,(02) 9475 4330,,,,-33.874561,151.094217,,,,,,Active,54 164 032 660,Business Name,AUS,Chemist Warehouse,CWG,Mergeco
Chemist Warehouse Sunshine,Chemist & Pharmacy Stores,292 Hampshire Rd,Sunshine,VIC,3020,(03) 9311 1300,,,,-37.784121,144.832596,,,,,,Active,37 558 263 105,Business Name,AUS,Chemist Warehouse,CWG,Mergeco
Chemmart Pharmacy Vermont South,Chemist & Pharmacy Stores,cnr Hanover Rd 503 Burwood Hwy,Vermont South,VIC,3133,(03) 9887 8149,www.chemmart.com.au,,,-37.85633,145.18295,,,,,,Active,80 200 881 836,Business Name,AUS,Chemmart,EBO,EBO
Cincotta Discount Chemist Toukley,Chemist & Pharmacy Stores,Shop 1 213-217 Main Rd,Toukley,NSW,2263,(02) 4396 4137,www.cincottachemist.com.au/stores/16-toukley,info@cincottachemisttk.com.au,,-33.26389,151.53918,,,,1951,,Active,59 823 048 100,Other Name,AUS,Ventura Health,EBO,EBO
Cincotta Discount Chemist Toukley,Chemist & Pharmacy Stores,,BUDGEWOI,NSW,2262,(02) 4396 4137,www.cincottachemist.com.au/stores/16-toukley,info@cincottachemisttk.com.au,,-33.2115183,151.5359698,,,,1951,,Active,59 823 048 100,Other Name,AUS,Ventura Health,EBO,EBO
Cincotta Discount Chemist Toukley,Chemist & Pharmacy Stores,,THE ENTRANCE NORTH,NSW,2261,(02) 4396 4137,www.cincottachemist.com.au/stores/16-toukley,info@cincottachemisttk.com.au,,-33.3392742,151.4377395,,,,1951,,Active,59 823 048 100,Other Name,AUS,Ventura Health,EBO,EBO
Cincotta Discount Chemist Toukley,Chemist & Pharmacy Stores,,HAMLYN TERRACE,NSW,2259,(02) 4396 4137,www.cincottachemist.com.au/stores/16-toukley,info@cincottachemisttk.com.au,,-33.2473069,151.44946,,,,1951,,Active,59 823 048 100,Other Name,AUS,Ventura Health,EBO,EBO
Cloverdale Family Pharmacy,Chemist & Pharmacy Stores,377A Belgravia St,Cloverdale,WA,6105,(08) 9478 3551,,medicalenquiry@sigmahealthcare.com.au,,-31.962595,115.945757,34 673 551 644,,,,,Active,34 673 551 644,Business Name,AUS,Independents & Minors,Independents & Minors,Independents & Minors
Cooloola Pharmacy,Chemist & Pharmacy Stores,7 Dolphin Ave,Tin Can Bay,QLD,4580,(07) 5486 4304,,,,-25.916151,153.002046,,,,,,Active,73 438 113 617,Business Name,AUS,Independents & Minors,Independents & Minors,Independents & Minors
Coopers Pharmacy Wingham,Chemist & Pharmacy Stores,Shop 8 and 13 Wingham Plaza/,Wingham,NSW,2429,(02) 6553 5336,http://www.cooperspharmacy.com.au,wingham@cooperspharmacy.com.au,,-31.910803,152.446062,,,,,,Active,30 604 767 419,Business Name,AUS,Independents & Minors,Independents & Minors,Independents & Minors
Cooroy Amcal Pharmacy,Chemist & Pharmacy Stores,3 Emerald St,Cooroy,QLD,4563,(07) 5447 6899,,,,-26.416827,152.909104,,,,,,Active,72 008 177 017,Trading Name,AUS,Amcal,SIG,Mergeco
Curtis Adams Pharmacy,Chemist & Pharmacy Stores,46 Reid St,Wangaratta,VIC,3676,(03) 5721 3686,,,,-36.35468,146.32658,,,,,,Active,41 159 328 424,Other Name,AUS,Independents & Minors,Independents & Minors,Independents & Minors
Dalby Chemist,Chemist & Pharmacy Stores,Shop 6 37 North St,Dalby,QLD,4405,(07) 4580 1144,,info@dalbychemist.com.au,,-27.17753,151.268526,,,,,,Active,16 605 694 574,Business Name,AUS,Independents & Minors,Independents & Minors,Independents & Minors
Dalton Village Pharmacy,Chemist & Pharmacy Stores,Dalton Village Shopping Centre 15/ 371 Dalton Rd,Epping,VIC,3076,(03) 9408 8944,,,,-37.65907,145.03,,,,,,Active,29 239 191 454,Other Name,AUS,Independents & Minors,Independents & Minors,Independents & Minors
Dellwood Medical Centre Pharmacy,Chemist & Pharmacy Stores,297 Blaxcell St,South Granville,NSW,2142,(02) 9637 8333,,,,-33.854569,151.007892,,,,,,Active,37 679 843 748,Other Name,AUS,Independents & Minors,Independents & Minors,Independents & Minors
Dennis Kilmartin Pharmacy,Chemist & Pharmacy Stores,58- 60 Station St,Seymour,VIC,3660,(03) 5792 1477,,,,-37.02424,145.13664,,,,,,Active,56 282 354 029,Trading Name,AUS,Independents & Minors,Independents & Minors,Independents & Minors
Diana's Pharmacy,Chemist & Pharmacy Stores,Shop 2 84D Roberts Ave,Mortdale,NSW,2223,(02) 9586 0100,,mark_sadig@hotmail.com,,-33.968547,151.064731,,,,,,Active,94 896 750 341,Business Name,AUS,Independents & Minors,Independents & Minors,Independents & Minors
Diana's Pharmacy,Chemist & Pharmacy Stores,44 Pindari Rd,Peakhurst Heights,NSW,2210,(02) 9533 3712,,dianasadig@hotmail.com,,-33.973659,151.054452,,,,,,Active,94 896 750 341,Business Name,AUS,Independents & Minors,Independents & Minors,Independents & Minors
Direct Chemist Outlet Chermside,Chemist & Pharmacy Stores,"Shop 6a, Chermside Markets, Corner Webster and Gympie Rds",Chermside,QLD,4032,(07) 3359 2000,directchemistoutlet.com.au,dco.chermside@frednet.com.au,,-27.373685,153.023303,,,,,,Active,56 998 580 152,Business Name,AUS,Independents & Minors,Independents & Minors,Independents & Minors
Direct Chemist Outlet Elsternwick,Chemist & Pharmacy Stores,336 Glenhuntly Rd,Elsternwick,VIC,3185,(03) 9523 9210,https://www.directchemistoutlet.com.au/,,,-37.884863,145.002984,,,,,,Active,93 096 935 411,Business Name,AUS,Independents & Minors,Independents & Minors,Independents & Minors
Direct Chemist Outlet Gladstone Park,Chemist & Pharmacy Stores,"Shop 104, Gladstone Park Shopping Centre, 8-34 Gladstone Park Dr",Gladstone Park,VIC,3043,(03) 9338 1033,https://www.directchemistoutlet.com.au/,,,-37.688016,144.884783,,,,,,Active,74 526 976 961,Business Name,AUS,Independents & Minors,Independents & Minors,Independents & Minors
Direct Chemist Outlet Kingston,Chemist & Pharmacy Stores,"Shop 1, Kingston Village Shopping Centre, 122-160 Grubb Rd",Ocean Grove,VIC,3226,(03) 5295 7077,https://www.directchemistoutlet.com.au/,,,-38.244318,144.539793,,,,,,Active,52 979 145 631,Business Name,AUS,Independents & Minors,Independents & Minors,Independents & Minors
Direct Chemist Outlet Saltwater,Chemist & Pharmacy Stores,Shop 13 15 Kenswick St,Point Cook,VIC,3030,(03) 9994 0400,https://www.directchemistoutlet.com.au/,,,-37.911111,144.770904,,,,,,Active,99 412 922 480,Business Name,AUS,Independents & Minors,Independents & Minors,Independents & Minors
Direct Chemist Outlet Werribee Central,Chemist & Pharmacy Stores,131 Watton St,Werribee,VIC,3030,(03) 9741 2883,https://www.directchemistoutlet.com.au,,,-37.902789,144.659501,,,,,,Active,84 477 589 891,Business Name,AUS,Independents & Minors,Independents & Minors,Independents & Minors
Dolls Point Pharmacy,Chemist & Pharmacy Stores,Shop 6 524-544 Rocky Point Rd,Sans Souci,NSW,2219,(02) 9529 8696,,,,-33.9932345,151.131831,,,,,,Active,68 735 782 720,Trading Name,AUS,Independents & Minors,Independents & Minors,Independents & Minors
Donnybrook Pharmacy,Chemist & Pharmacy Stores,78 South Western Hwy,Donnybrook,WA,6239,(08) 9731 1016,,,,-33.57348,115.82509,,,,,,Active,44 299 083 181,Trading Name,AUS,Independents & Minors,Independents & Minors,Independents & Minors
Duncraig Pharmacy,Chemist & Pharmacy Stores,"Shop 8 Duncraig Shopping Centre, Marri Rd",Duncraig,WA,6023,(08) 9447 5208,,,,-31.83164405,115.7693389,,,,,,Active,48 050 225 840,Trading Name,AUS,Independents & Minors,Independents & Minors,Independents & Minors
Earlwood Pharmacy,Chemist & Pharmacy Stores,358 Homer St,Earlwood,NSW,2206,(02) 9558 6888,,,,-33.927062,151.125133,,,,,,Active,81 273 727 161,Trading Name,AUS,Independents & Minors,Independents & Minors,Independents & Minors
Enayati Services Pty Ltd,Chemist & Pharmacy Stores,106 Augusta Rd,Lenah Valley,TAS,7008,(03) 6234 3759,http://www.enayatiservices.com.au,,,-42.866103,147.296626,,,,,,Active,36 101 394 085,Entity Name,AUS,Independents & Minors,Independents & Minors,Independents & Minors
Erskineville Chemist,Chemist & Pharmacy Stores,1/ 83 Erskineville Rd,Erskineville,NSW,2043,(02) 9519 7899,,,,-33.900049,151.184513,,,,,,Active,52 151 785 974,Business Name,AUS,Independents & Minors,Independents & Minors,Independents & Minors
Excel Pharmacy,Chemist & Pharmacy Stores,Shop 2 178 Excelsior St,Guildford,NSW,2161,(02) 9632 5093,,,,-33.85236,151.00053,,,,,,Active,37 679 843 748,Trading Name,AUS,Independents & Minors,Independents & Minors,Independents & Minors
Excel Pharmacy,Chemist & Pharmacy Stores,Cnr Excelsior and Constance Sts,Guildford,NSW,2161,(02) 9632 5093,,,,-33.851902,151.000966,,,,,,Active,37 679 843 748,Trading Name,AUS,Independents & Minors,Independents & Minors,Independents & Minors
Exeter Pharmacy,Chemist & Pharmacy Stores,51 Main Rd,Exeter,TAS,7275,(03) 6394 4343,http://www.capitalchemisttas.com.au,,,-41.300627,146.95322,,,,,,Active,25 153 546 205,Trading Name,AUS,Independents & Minors,Independents & Minors,Independents & Minors
Friendlies Chemist Perth,Chemist & Pharmacy Stores,849 Hay St,Perth,WA,6000,(08) 9321 5391,,,,-31.953074,115.853845,70 102 396 564,,Nov-20,2007,Sleep apnoea and snoring,Active,52 991 517 899,Trading Name,AUS,Independents & Minors,Independents & Minors,Independents & Minors
Friendly Care Advantage Hobart,Chemist & Pharmacy Stores,127 New Town Rd,New Town,TAS,7008,(03) 6228 1146,www.chemmart.com.au,ntpharmacists@friendlysociety.com.au,,-42.8596,147.307133,17 087 963 013,,,,,Active,17 087 963 013,Business Name,AUS,Independents & Minors,Independents & Minors,Independents & Minors
Friendly Pharmacy,Chemist & Pharmacy Stores,"Shop 12, 22 Kenthurst Rd, Round Corner",Dural,NSW,2158,(02) 9651 1156,http://www.friendlypharmacy.com.au/store.html,admin@friendlypharmacy.com.au,,-33.692481,151.019631,,,,,,Active,38 087 822 151,Business Name,AUS,Independents & Minors,Independents & Minors,Independents & Minors
Gardenvale Pharmacy,Chemist & Pharmacy Stores,Shop 4 170 Martin St,Brighton,VIC,3186,(03) 9596 2174,,,,-37.898,145.00544,,,,,,Active,62 230 983 532,Business Name,AUS,Independents & Minors,Independents & Minors,Independents & Minors
Gaslight Pharmacy,Chemist & Pharmacy Stores,484-486 Old South Head Rd,Rose Bay,NSW,2029,(02) 9371 9414,https://www.gaslightpharmacy.com.au/,mail@gaslightpharmacy.com.au,,-33.875241,151.272077,,,,,,Active,58 619 853 725,Trading Name,AUS,Independents & Minors,Independents & Minors,Independents & Minors
Glenrose Pharmacy,Chemist & Pharmacy Stores,25 Glenrose Centre Glen St,Belrose,NSW,2085,(02) 9451 9191,,,,-33.739873,151.209547,,,,,,Active,14 898 010 147,Other Name,AUS,Independents & Minors,Independents & Minors,Independents & Minors
Good Health Pharmacy,Chemist & Pharmacy Stores,30 Como Parade,Mentone,VIC,3194,(03) 9583 2092,www.goodhealthpharmacy.com.au,scripts@goodhealthpharmacy.com.au,,-37.982034,145.064255,41 926 366 564,,,,,Active,41 926 366 564,Other Name,AUS,Independents & Minors,Independents & Minors,Independents & Minors
Greenfield Park Pharmacy,Chemist & Pharmacy Stores,Greenfield Park Shopng Ctr,Greenfield Park,NSW,2176,(02) 9610 1114,,,,-33.871629,150.88988,,,,,,Active,34 732 998 316,Other Name,AUS,Independents & Minors,Independents & Minors,Independents & Minors
Greenfield Park Pharmacy,Chemist & Pharmacy Stores,Shop 13/14 Shopping Village,Greenfield Park,NSW,2176,(02) 9610 1114,,,,-33.8718038,150.8900998,,,,,,Active,34 732 998 316,Other Name,AUS,Independents & Minors,Independents & Minors,Independents & Minors
Guardian Pharmacy Tunstall Square,Chemist & Pharmacy Stores,10 Tunstall Sq,Doncaster East,VIC,3109,(03) 9842 1487,,,,-37.790704,145.169904,,,,,,Active,92 750 292 050,Other Name,AUS,Guardian,SIG,Mergeco
Gwynneville Pharmacy,Chemist & Pharmacy Stores,184 Gipps Rd,Gwynneville,NSW,2500,(02) 4229 4287,www.facebook.com/GwynnevillePharmacy,gwynneville@my-pharmacy.com.au,,-34.415957,150.883957,,,,,,Active,35 606 917 899,Business Name,AUS,Independents & Minors,Independents & Minors,Independents & Minors
Hamilton Island Pharmacy,Chemist & Pharmacy Stores,18 Front St,Hamilton Island,QLD,4803,(07) 4946 9681,,,,-20.343008,148.949971,,,,,,Active,68 005 414 451,Business Name,AUS,Independents & Minors,Independents & Minors,Independents & Minors
Hanna's Pharmacy,Chemist & Pharmacy Stores,20 Robertson Dr,Mornington,VIC,3931,(03) 5977 1977,,,,-38.22543,145.05551,,,,,,Active,86 063 629 011,Business Name,AUS,Independents & Minors,Independents & Minors,Independents & Minors
Healthline Pharmacy Bamford Lane,Chemist & Pharmacy Stores,Shop 2 375 Charles St,Kirwan,QLD,4817,(07) 4773 1758,https://www.facebook.com/healthlinebamfordlane/,webstore@isynergy.com.au,,-19.304184,146.740256,,,,,,Active,62 120 412 991,Business Name,AUS,Independents & Minors,Independents & Minors,Independents & Minors
Healthlink Pharmacy Highclere,Chemist & Pharmacy Stores,Unit 2/ 52 Highclere Blv,Marangaroo,WA,6064,(08) 9342 4488,,,,-31.83025,115.84037,,,,,,Active,96 785 717 466,Trading Name,AUS,Independents & Minors,Independents & Minors,Independents & Minors
Healthways Chemist,Chemist & Pharmacy Stores,Shop 11 Westfield Shopng Town,Westfield,WA,6111,(08) 9495 4264,,medicalenquiry@sigmahealthcare.com.au,,-32.119263,116.001196,,,,,,Active,34 673 551 644,Business Name,AUS,Independents & Minors,Independents & Minors,Independents & Minors
Healthyworld Pharmacy Chermside,Chemist & Pharmacy Stores,Westfield Chermside Shop 127-130 Cnr Gympie Hamilton Rds,Chermside,QLD,4032,(07) 3350 4437,www.healthyworld.com.au,chermside@healthyworld.com.au,,-27.385835,153.030976,,,,,Skin care,Active,23 705 450 787,Business Name,AUS,Independents & Minors,Independents & Minors,Independents & Minors
Heatherton Chandler Pharmacy,Chemist & Pharmacy Stores,127 Chandler Rd,Noble Park,VIC,3174,(03) 9706 3422,,,,-37.975053,145.186088,,,,,,Active,81 894 146 099,Other Name,AUS,Independents & Minors,Independents & Minors,Independents & Minors
Henry Yu Pharmacy,Chemist & Pharmacy Stores,112 Ashleigh Ave,Karingal,VIC,3199,(03) 9789 0564,,,,-38.13905,145.15251,,,,,,Active,73 665 874 353,Business Name,AUS,Independents & Minors,Independents & Minors,Independents & Minors
Hope Island 7 Day Amcal Chemist,Chemist & Pharmacy Stores,Shop 3 99-103 Broadwater Ave,Hope Island,QLD,4212,(07) 5530 8653,https://www.amcal.com.au/store-locator/qld/amcal-pharmacy-hope-island,ADMIN@HOPEISLANDAMCAL.COM.AU,,-27.877691,153.363815,,,,,,Active,18 211 697 731,Business Name,AUS,Amcal,SIG,Mergeco
Hospharm Pty Ltd,Chemist & Pharmacy Stores,350 South Tce,Adelaide,SA,5000,(08) 8215 0231,,,,-34.934223,138.614914,,,,,,Active,63 136 875 922,Entity Name,AUS,Independents & Minors,Independents & Minors,Independents & Minors
Hospharm Pty Ltd,Chemist & Pharmacy Stores,640 Albany Creek Rd,Albany Creek,QLD,4035,(07) 3325 3487,,,,-27.346385,152.975908,,,,,,Active,63 136 875 922,Entity Name,AUS,Independents & Minors,Independents & Minors,Independents & Minors
Hospharm Pty Ltd,Chemist & Pharmacy Stores,434 Bobbin Head Rd,North Turramurra,NSW,2074,(02) 9440 9130,,,,-33.690863,151.150923,,,,,,Active,63 136 875 922,Entity Name,AUS,Independents & Minors,Independents & Minors,Independents & Minors
Howard Pharmacy,Chemist & Pharmacy Stores,2/ 75 William St,Howard,QLD,4659,(07) 4129 4614,,,,-25.317893,152.561545,,,,,,Active,56 923 200 725,Business Name,AUS,Independents & Minors,Independents & Minors,Independents & Minors
Hoxton Park Pharmacy,Chemist & Pharmacy Stores,Shop 14 600 Hoxton Park Rd,Hoxton Park,NSW,2171,(02) 9825 8444,,,,-33.92754,150.85756,,,,,,Active,42 072 412 679,Business Name,AUS,Independents & Minors,Independents & Minors,Independents & Minors
Jerramungup Pharmacy,Chemist & Pharmacy Stores,9 Memorial Rd,Jerramungup,WA,6337,(08) 9835 1555,https://www.facebook.com/jerramunguppharmacy/,jerrapharmacy@gmail.com,,-33.940815,118.918437,,,,,,Active,57 656 504 228,Business Name,AUS,Independents & Minors,Independents & Minors,Independents & Minors
Kilsyth Pharmacy,Chemist & Pharmacy Stores,Shop 19- 20/ 520-528 Mt Dandenong Rd,Kilsyth,VIC,3137,(03) 9723 4669,,,,-37.8024067,145.3096596,,,,,,Active,70 655 879 819,Business Name,AUS,Independents & Minors,Independents & Minors,Independents & Minors
Kingswood Park Pharmacy,Chemist & Pharmacy Stores,Shop 2 Market Land 7 Caloola Ave,Kingswood,NSW,2747,(02) 4721 4604,,,,-33.7437,150.71359,,,,,,Active,45 797 957 040,Business Name,AUS,Independents & Minors,Independents & Minors,Independents & Minors
Kurnell Pharmacy,Chemist & Pharmacy Stores,Shop 5/ 10-20 Torres St,Kurnell,NSW,2231,(02) 9668 9292,,,,-34.01134,151.20948,,,,,,Active,84 269 807 390,Business Name,AUS,Independents & Minors,Independents & Minors,Independents & Minors
Lanyon Pharmacy,Chemist & Pharmacy Stores,Shop 17 Lanyon Market Pl,Conder,ACT,2906,(02) 6284 8555,www.lanyonpharmacy.com.au,rmlanyon@lifepharmacygroup.com.au,,-35.45742,149.092606,,,,,,Active,25 153 807 138,Other Name,AUS,Independents & Minors,Independents & Minors,Independents & Minors
Leppington Pharmacy,Chemist & Pharmacy Stores,1469 Camden Valley Way,Leppington,NSW,2171,(02) 9606 6370,,,,-33.9643,150.81692,,,,,,Active,14 101 873 965,Business Name,AUS,Independents & Minors,Independents & Minors,Independents & Minors
Lincolnville Pharmacy,Chemist & Pharmacy Stores,33 Mc Farlane St,Keilor East,VIC,3033,(03) 9337 5416,,,,-37.74438,144.86631,,,,,,Active,26 698 857 574,Business Name,AUS,Independents & Minors,Independents & Minors,Independents & Minors
LiveLife Pharmacy Coolum Park,Chemist & Pharmacy Stores,21 South Cotton Rd,Coolum Beach,QLD,4573,(07) 5446 3100,http://www.livelifepharmacy.com,coolumpark@livelifepharmacy.com,,-26.5284468,153.0906847,,,,,,Active,48 158 638 503,Business Name,AUS,Independents & Minors,Independents & Minors,Independents & Minors
LiveLife Pharmacy Noosa Junction,Chemist & Pharmacy Stores,22 Sunshine Beach Rd,Noosa Heads,QLD,4567,(07) 5447 3478,www.livelifepharmacy.com,noosajunction@livelifepharmacy.com,,-26.397963,153.090911,,,,,,Active,48 158 638 503,Business Name,AUS,Independents & Minors,Independents & Minors,Independents & Minors
Livelife Pharmacy Tewantin,Chemist & Pharmacy Stores,112 Poinciana Ave,Tewantin,QLD,4565,(07) 5447 1451,https://www.livelifepharmacy.com/,tewantin@livelifepharmacy.com,,-26.391464,153.038696,,,,,,Active,69 620 306 532,Business Name,AUS,Independents & Minors,Independents & Minors,Independents & Minors
Manly Podiatry,Chemist & Pharmacy Stores,72 The Cso,Manly,NSW,2095,(02) 9977 6397,,,,-33.79805,151.28719,,,,,,Active,98 413 074 895,Business Name,AUS,Independents & Minors,Independents & Minors,Independents & Minors
Marburg Pharmacy,Chemist & Pharmacy Stores,Shop 3 207 Edmond St,Marburg,QLD,4346,(07) 5464 4630,,marburg.pharmacy@hotmail.com,,-27.563555,152.582825,,,,,,Active,80 961 617 356,Business Name,AUS,Independents & Minors,Independents & Minors,Independents & Minors
Masen's Pharmacy,Chemist & Pharmacy Stores,61 Armidale St,South Grafton,NSW,2460,(02) 6642 2037,,,,-29.714221,152.9405,,,,,,Active,13 880 704 212,Trading Name,AUS,Independents & Minors,Independents & Minors,Independents & Minors
MEDS DIRECT MERRYLANDS,Chemist & Pharmacy Stores,Unit 35 40 Earl St,Merrylands,NSW,2160,(02) 7905 0822,http://medsdirectpharmacy.com.au,medsdirect2160@gmail.com,,-33.847127,150.997908,,,,,,Active,46 640 142 972,Business Name,AUS,Independents & Minors,Independents & Minors,Independents & Minors
Medsafe Pharmacy,Chemist & Pharmacy Stores,104-106 Miller St,Preston,VIC,3072,(03) 9484 1576,,info@medsafepharmacy.com.au,,-37.750867,144.988733,,,,2010,,Active,19 782 972 560,Other Name,AUS,Independents & Minors,Independents & Minors,Independents & Minors
Meeniyan Pharmacy,Chemist & Pharmacy Stores,118 Whitelaw St,Meeniyan,VIC,3956,(03) 5664 7244,,,,-38.577807,146.013018,,,,,,Active,36 413 971 287,Business Name,AUS,Independents & Minors,Independents & Minors,Independents & Minors
Mega Save Chemist,Chemist & Pharmacy Stores,Charlestown Square Level 1 / Shop 1028 Charelstown St,Charlestown,NSW,2290,(02) 4942 5669,,,,-32.9634907,151.6951503,,,,,,Active,33 645 298 440,Other Name,AUS,Independents & Minors,Independents & Minors,Independents & Minors
Menindee St Abraam Pharmacy,Chemist & Pharmacy Stores,37 Menindee St,Menindee,NSW,2879,(08) 8091 4310,,,,-32.392354,142.417487,,,,,,Active,81 244 552 700,Business Name,AUS,Independents & Minors,Independents & Minors,Independents & Minors
Merrindale Pharmacy,Chemist & Pharmacy Stores,514 Dorset Rd,Croydon South,VIC,3136,(03) 9723 3366,,,,-37.81601,145.28723,,,,,,Active,12 115 074 078,Business Name,AUS,Independents & Minors,Independents & Minors,Independents & Minors
Millmerran Pharmacy,Chemist & Pharmacy Stores,43 Campbell St,Millmerran,QLD,4357,(07) 4695 1458,,,,-27.876867,151.269355,,,,,,Active,83 326 092 994,Business Name,AUS,Independents & Minors,Independents & Minors,Independents & Minors
Mooloolah Valley Pharmacy,Chemist & Pharmacy Stores,,Mooloolah,QLD,4553,(07) 5494 7777,,mooloolahpharmay@nunet.com.au,,-26.7649411,152.9627194,93 560 843 654,,1-Oct,1990,33540G,Active,93 560 843 654,Other Name,AUS,Independents & Minors,Independents & Minors,Independents & Minors
Moorabbin Pharmacy,Chemist & Pharmacy Stores,908 Nepean Hwy,Hampton East,VIC,3188,(03) 9555 0700,http://www.moorabbinpharmacy.com/,,,-37.93505,145.03553,51 896 479 008,,,,,Active,45 325 812 672,Trading Name,AUS,Independents & Minors,Independents & Minors,Independents & Minors
Mosman Park Pharmacy,Chemist & Pharmacy Stores,Cnr Wellington &amp; Manning Sts,Mosman Park,WA,6012,(08) 9384 6840,,mosmanparkpharmacy@westnet.com.au,,-32.015163,115.769738,,,,,,Active,61 974 287 561,Business Name,AUS,Independents & Minors,Independents & Minors,Independents & Minors
Mount Claremont Pharmacy,Chemist & Pharmacy Stores,25 Asquith St,Mt Claremont,WA,6010,0417 170 956,,,,-31.965959,115.774926,,,,,,Active,58 164 649 174,Business Name,AUS,Independents & Minors,Independents & Minors,Independents & Minors
Murchison Pharmacy,Chemist & Pharmacy Stores,45 Stevenson St,Murchison,VIC,3610,(03) 5826 2208,https://www.facebook.com/people/Murchison-Pharmacy/100057493507678,info@murchisonpharmacy.com.au,,-36.617282,145.218364,,,,,,Active,41 805 295 966,Business Name,AUS,Independents & Minors,Independents & Minors,Independents & Minors
Murchison Pharmacy,Chemist & Pharmacy Stores,45 Stevenson St,Murchison,VIC,3610,(03) 5826 2208,https://www.facebook.com/people/Murchison-Pharmacy/100057493507678,info@murchisonpharmacy.com.au,,-36.617282,145.218364,,,,,,Active,41 805 295 966,Business Name,AUS,Independents & Minors,Independents & Minors,Independents & Minors
My Chemist Reservoir,Chemist & Pharmacy Stores,20 Edwardes St,Reservoir,VIC,3073,(03) 9460 6993,,,,-37.715916,145.005513,,,,,,Active,21 396 868 718,Business Name,AUS,MyChemist,CWG,Mergeco
myEcopharmacy,Chemist & Pharmacy Stores,Shop 17 2-14 Henry Lawson Dr,Terranora,NSW,2486,(07) 5590 5788,https://myecopharmacy-and-post-office.business.site/?utm_source=gmb&amp;utm_medium=referral,,,-28.239813,153.501774,,,,,,Active,16 632 943 590,Business Name,AUS,Independents & Minors,Independents & Minors,Independents & Minors
Naim Pharmacy,Chemist & Pharmacy Stores,2a/ 124A Epping Rd,North Ryde,NSW,2113,(02) 9878 1861,,,,-33.7872,151.12518,,,,,,Active,17 794 701 632,Trading Name,AUS,Independents & Minors,Independents & Minors,Independents & Minors
Nanango Discount Drug Store,Chemist & Pharmacy Stores,58 Fitzroy St,Nanango,QLD,4615,(07) 4163 1631,www.discountdrugstores.com.au,nanango@discountdrugstores.com.au,,-26.669843,152.000658,,,,2001,,Active,35 397 600 131,Business Name,AUS,DDS,SIG,Mergeco
Nelson Bay Discount Drug Store,Chemist & Pharmacy Stores,Shop 1 Woolworths Shopping Centre Donald St,Nelson Bay,NSW,2315,(02) 4981 1237,www.discountdrugstores.com.au,forestlakes@discountdrugstores.com.au,,-32.721986,152.143977,,,,2001,,Active,47 147 740 369,Business Name,AUS,DDS,SIG,Mergeco
Nelson Bay Pharmacy,Chemist & Pharmacy Stores,71 Magnus St,Nelson Bay,NSW,2315,(02) 4981 1237,,,,-32.721584,152.14474,,,,,,Active,47 147 740 369,Business Name,AUS,Independents & Minors,Independents & Minors,Independents & Minors
Nelsons Ridge Pharmacy,Chemist & Pharmacy Stores,Shop-14 Pemulwuy Market Place,Pemulwuy,NSW,2145,(02) 9631 9406,,,,-33.81822861,150.9330204,,,,,,Active,71 063 328 087,Trading Name,AUS,Independents & Minors,Independents & Minors,Independents & Minors
Newton Pharmacy,Chemist & Pharmacy Stores,299 Montacute Rd,Newton,SA,5074,(08) 8365 2990,,pharmacist@newtonpharmacy.com.au,,-34.886036,138.690662,13 075 784 790,,1-Oct,,Prompt response,Active,75 072 008 265,Other Name,AUS,Independents & Minors,Independents & Minors,Independents & Minors
Nightingales Pharmacy,Chemist & Pharmacy Stores,8 Silas St,East Fremantle,WA,6158,(08) 9339 4404,,,,-32.04193,115.764636,,,,,,Active,15 662 816 779,Trading Name,AUS,Independents & Minors,Independents & Minors,Independents & Minors
Noel D'souza Chemist,Chemist & Pharmacy Stores,496 Bunnerong Rd,Matraville,NSW,2036,(02) 9311 1600,,,,-33.958033,151.230703,,,,,,Active,71 643 074 917,Business Name,AUS,Independents & Minors,Independents & Minors,Independents & Minors
Nova Pharmacy Wendouree,Chemist & Pharmacy Stores,1021 Howitt St,Wendouree,VIC,3355,(03) 5339 3955,www.novapharmacy.com.au,nova.wendouree@bfcpg.com.au,,-37.541484,143.837812,,,,,,Active,65 335 300 918,Business Name,AUS,Independents & Minors,Independents & Minors,Independents & Minors
Optimal Pharmacy Plus Balga,Chemist & Pharmacy Stores,"Shop 7, Fieldgate Square Shopping Centre Culloton Crs",Balga,WA,6061,(08) 9342 2212,,,,-31.8493,115.828487,,,,,,Active,26 880 026 316,Trading Name,AUS,Independents & Minors,Independents & Minors,Independents & Minors
Optimal Pharmacy Plus Balga,Chemist & Pharmacy Stores,Shop 7 Culloton Cres,Balga,WA,6061,(08) 9342 2212,,,,-31.8485539,115.8255277,,,,,,Active,26 880 026 316,Trading Name,AUS,Independents & Minors,Independents & Minors,Independents & Minors
Optimal Pharmacy Plus Dianella,Chemist & Pharmacy Stores,Alexander Dr,Dianella,WA,6059,(08) 9276 8484,,,,-31.895609,115.869799,,,,,,Active,12 858 984 467,Business Name,AUS,Independents & Minors,Independents & Minors,Independents & Minors
Optimal Pharmacy Plus Dianella,Chemist & Pharmacy Stores,"Dianella Shopping Centre, Shp 51, Alexander Drv",Dianella,WA,6059,(08) 9276 8484,,,,-31.887097,115.872127,,,,,,Active,12 858 984 467,Business Name,AUS,Independents & Minors,Independents & Minors,Independents & Minors
Optimal Pharmacy Plus Doubleview,Chemist & Pharmacy Stores,195 Scarborough Beach Rd,Doubleview,WA,6018,(08) 9446 1135,,,,-31.894325,115.778295,91 536 597 229,,1-Oct,2006,,Active,54 130 213 874,Business Name,AUS,Independents & Minors,Independents & Minors,Independents & Minors
Oxenford 7 day  Chempro Chemist,Chemist & Pharmacy Stores,Shop 9 Centro Oxenford Shopping Centre 11 Tamborine Oxenford Rd,Oxenford,QLD,4210,(07) 5519 9200,https://www.chempro.com.au/,oxenford@chempro.com.au,,-27.889826,153.304247,,,,,,Active,72 786 912 848,Business Name,AUS,Independents & Minors,Independents & Minors,Independents & Minors
Parkdale Pharmacy,Chemist & Pharmacy Stores,270 Como Parade,Parkdale,VIC,3195,(03) 9580 1891,https://www.terrywhitechemmart.com.au,,,-37.993771,145.076195,,,,,,Active,13 167 146 143,Business Name,AUS,Independents & Minors,Independents & Minors,Independents & Minors
Parkwood Family Amcal Chempro Chemist,Chemist & Pharmacy Stores,306 Olsen Ave,Parkwood,QLD,4214,(07) 5594 7022,,,,-27.956506,153.380927,,,,,,Active,98 145 275 801,Other Name,AUS,Amcal,SIG,Mergeco
Penna's Pharmacy,Chemist & Pharmacy Stores,Shop 10 Cnr Feodore Drive Lancaster Rd,Cecil Hills,NSW,2171,(02) 9823 6999,https://www.pennaspharmacy.com.au/,cecil@pennaspharmacy.com.au,,-33.887266,150.847736,,,,,,Active,11 198 393 989,Business Name,AUS,Independents & Minors,Independents & Minors,Independents & Minors
Peterborough Pharmacy,Chemist & Pharmacy Stores,211 Main St,Peterborough,SA,5422,(08) 8651 2688,,,,-32.973239,138.835517,,,,,,Active,68 638 608 143,Business Name,AUS,Independents & Minors,Independents & Minors,Independents & Minors
Pharmacy 4 Less Burwood,Chemist & Pharmacy Stores,Shop 147 Westfield Burwood,Burwood,NSW,2134,(02) 9747 2189,http://www.pharmacy4less.com.au/,info@pharmacy4less.com.au,,-33.877555,151.103705,,,,,,Active,97 156 536 373,Business Name,AUS,Independents & Minors,Independents & Minors,Independents & Minors
Pharmacy 4 Less Geelong West,Chemist & Pharmacy Stores,Shop 5 &amp; 6/ 95-103 Pakington St,Geelong West,VIC,3218,(03) 5229 6633,https://www.pharmacy4less.com.au/,,,-38.137394,144.347683,,,,,,Active,27 286 977 104,Business Name,AUS,Independents & Minors,Independents & Minors,Independents & Minors
Pharmacy on Clarkson Station,Chemist & Pharmacy Stores,Unit 22 291 Ocean Keys Bvd,Clarkson,WA,6030,(08) 9408 5177,,clarksonpharmacy@iinet.net.au,,-31.690534,115.736549,,,,,,Active,55 632 827 546,Business Name,AUS,Independents & Minors,Independents & Minors,Independents & Minors
Pharmacy Outlet Brisbane City,Chemist & Pharmacy Stores,Wintergarden Shopng Cntr/ 171 Queen Street Mall,Brisbane,QLD,4000,(07) 3003 1111,http://www.pharmacyoutletbrisbane.com.au,info@pharmacyoutletbrisbane.com.au,,-27.46905,153.02547,,,,,,Active,34 436 670 729,Other Name,AUS,Independents & Minors,Independents & Minors,Independents & Minors
Pickford Pharmacy,Chemist & Pharmacy Stores,177-179 Elgin St,Carlton,VIC,3053,(03) 9347 2505,www.pickfordpharmacy.com/,pickfordpharmacy@gmail.com,,-37.797581,144.968489,,,,2003,,Active,89 106 869 469,Business Name,AUS,Independents & Minors,Independents & Minors,Independents & Minors
Portland Pharmacy,Chemist & Pharmacy Stores,59 Williewa St,Portland,NSW,2847,(02) 6355 5100,,,,-33.353349,149.981633,,,,,,Active,40 342 643 116,Trading Name,AUS,Independents & Minors,Independents & Minors,Independents & Minors
Dernancourt Priceline Pharmacy,Chemist & Pharmacy Stores,840 Lower North East Rd,Dernancourt,SA,5075,(08) 8337 9997,,,,-34.862162,138.682926,,,,,,,,,AUS,Priceline,API,API
Helensvale Priceline Pharmacy,Chemist & Pharmacy Stores,"Westfield Shopping Centre Shop 1102, 1 Millaroo Dr",Helensvale,QLD,4212,(07) 5573 4900,,helensvalepriceline3@hotmail.com,,-27.926826,153.335725,89 144 758 127,,,,,Active,64 164 153 459,Business Name,AUS,Priceline,API,API
John Douglas Priceline Pharmacy,Chemist & Pharmacy Stores,Centro Goulburn,Goulburn,NSW,2580,(02) 4821 7001,www.priceline.com.au,priceline.goulburn@frednet.com.au,,-34.70850166,149.7599901,,,,1982,,,,,AUS,Priceline,API,API
Margaret River Priceline Pharmacy,Chemist & Pharmacy Stores,146 Bussell Hwy,Margaret River,WA,6285,(08) 9757 2224,https://www.priceline.com.au/,dispense2@pharmacymr.com.au,,-33.952426,115.073014,,,,,,,,,AUS,Priceline,API,API
Naders Priceline Pharmacy,Chemist & Pharmacy Stores,"Shop 10 Riverside Plz,",Queanbeyan,ACT,2620,(02) 6297 1179,,,,-35.35234496,149.2353207,,,,,,,,,AUS,Priceline,API,API
Plympton Pharmacy Priceline,Chemist & Pharmacy Stores,392 Marion Rd,Plympton,SA,5038,(08) 8297 3002,,,,-34.962875,138.554343,,,,,,,,,AUS,Priceline,API,API
Priceline,Chemist & Pharmacy Stores,Kin Kora Shopping Plaza,Kin Kora,QLD,4680,(07) 4978 1011,www.terrywhitechemists.com.au,kinkora@terrywhitechemists.com.au,,-23.870123,151.241344,,,,,,Active,65 701 908 786,Trading Name,AUS,Priceline,API,API
Priceline,Chemist & Pharmacy Stores,Shop 8 378 Wellington St,Perth,WA,6000,(08) 9221 3131,https://www.priceline.com.au,,,-31.951569,115.860874,,,,,,Active,65 701 908 786,Trading Name,AUS,Priceline,API,API
Quality Pharmacy Werribee,Chemist & Pharmacy Stores,"Shop T 109, Werribee Plaza, Cnr Heaths and Derrimut Roads,",Werribee,VIC,3030,(03) 9749 3332,,,,-37.90123,144.652606,,,,,,Active,71 397 172 790,Trading Name,AUS,Independents & Minors,Independents & Minors,Independents & Minors
Rainbow Community Pharmacy,Chemist & Pharmacy Stores,42 Roy St,Jeparit,VIC,3423,(03) 5397 2025,,,,-36.142549,141.987626,,,,,,Active,77 656 876 194,Business Name,AUS,Independents & Minors,Independents & Minors,Independents & Minors
Ramsay Pharmacy Melbourne CBD,Chemist & Pharmacy Stores,Southern Cross Building Shop 2-G 07 121 Exhibition St,Melbourne,VIC,3000,(03) 9650 4265,https://www.ramsaypharmacy.com.au/Store-Finder/10017/Ramsay-Pharmacy-Melbourne-CBD,,,-37.812822,144.970427,,,,,,Active,19 164 104 161,Business Name,AUS,Ramsay Pharmacy,RHC,RHC
Randwick Day & Night Pharmacy,Chemist & Pharmacy Stores,10 Belmore Rd,Randwick,NSW,2031,(02) 9398 1777,,,,-33.913111,151.239309,,,,,,Active,19 862 808 741,Trading Name,AUS,Independents & Minors,Independents & Minors,Independents & Minors
Riverview Pharmacy,Chemist & Pharmacy Stores,61 Tambourine Bay Rd,Riverview,NSW,2066,(02) 9427 5245,,,,-33.82054,151.16429,,,,,,Active,71 527 817 549,Business Name,AUS,Independents & Minors,Independents & Minors,Independents & Minors
Riverway Pharmacy,Chemist & Pharmacy Stores,Shop 6/ 981 Riverway Dr,Rasmussen,QLD,4815,(07) 4755 4654,,,,-19.340779,146.727634,,,,,,Active,64 371 437 249,Trading Name,AUS,Independents & Minors,Independents & Minors,Independents & Minors
Robina Pharmacy,Chemist & Pharmacy Stores,1 Campus Cres,Robina,QLD,4226,,,robinapharmacy@outlook.com,,-28.074112,153.377355,,,,,,Active,32 650 465 571,Business Name,AUS,Independents & Minors,Independents & Minors,Independents & Minors
Rockdale Pharmacy,Chemist & Pharmacy Stores,88 Railway St,Rockdale,NSW,2216,(02) 9599 3332,,,,-33.951973,151.136131,,,,,,Active,56 232 725 124,Trading Name,AUS,Independents & Minors,Independents & Minors,Independents & Minors
Shaw Road Pharmacy,Chemist & Pharmacy Stores,216 Shaw Rd,Wavell Heights,QLD,4012,(07) 3266 7799,https://www.facebook.com/shawroadpharmacy/,,,-27.399569,153.048084,,,,,,Active,61 609 576 598,Business Name,AUS,Independents & Minors,Independents & Minors,Independents & Minors
Southport Pharmacy,Chemist & Pharmacy Stores,178 Nerang Rd,Southport,QLD,4215,(07) 5609 4989,http://www.southportpharmacy.com,southportpharmacy@outlook.com,,-27.975314,153.395198,,,,,,Active,32 650 465 571,Business Name,AUS,Independents & Minors,Independents & Minors,Independents & Minors
Speers Point Pharmacy,Chemist & Pharmacy Stores,175 Main Rd,Speers Point,NSW,2284,(02) 4958 1080,,,,-32.963408,151.622457,,,,,,Active,93 316 158 297,Trading Name,AUS,Independents & Minors,Independents & Minors,Independents & Minors
Speers Point Pharmacy,Chemist & Pharmacy Stores,,Speers Point,NSW,2284,(02) 4965 8948,,,,-32.9608769,151.6229885,,,,,,Active,93 316 158 297,Trading Name,AUS,Independents & Minors,Independents & Minors,Independents & Minors
Star Discount Chemist,Chemist & Pharmacy Stores,113 Prospect Rd,Prospect,SA,5082,(08) 8344 2680,https://stardiscountchemist.com.au/,banksiabeachdc@starpharmacy.com.au,,-34.885396,138.594259,,,,,,Active,42 480 086 042,Business Name,AUS,Independents & Minors,Independents & Minors,Independents & Minors
Star Discount Chemist,Chemist & Pharmacy Stores,Shop 5 &amp; 6 591 Magill Rd,Magill,SA,5072,(08) 8431 5811,https://stardiscountchemist.com.au/,,,-34.912759,138.673855,,,,,,Active,42 480 086 042,Business Name,AUS,Independents & Minors,Independents & Minors,Independents & Minors
Star Discount Chemist,Chemist & Pharmacy Stores,Shop 14-15 Welland Plaza 522 Port Rd,Welland,SA,5007,(08) 8346 3963,https://stardiscountchemist.com.au/,,,-34.896725,138.557175,,,,,,Active,42 480 086 042,Business Name,AUS,Independents & Minors,Independents & Minors,Independents & Minors
Star Discount Chemist,Chemist & Pharmacy Stores,"Shops 20-22, Bribie Harbour Shopping Village, Cnr Sunderland Dr and Endeavour Dr",Banksia Beach,QLD,4507,(07) 3408 6444,https://stardiscountchemist.com.au/,banksiabeachdc@starpharmacy.com.au,,-27.044839,153.136393,,,,,,Active,42 480 086 042,Business Name,AUS,Independents & Minors,Independents & Minors,Independents & Minors
Star Discount Chemist,Chemist & Pharmacy Stores,Shop 5 31-45 Eyre St,North Ward,QLD,4810,(07) 4721 2211,http://stardiscountchemist.com.au,,,-19.251852,146.814269,,,,,,Active,42 480 086 042,Business Name,AUS,Independents & Minors,Independents & Minors,Independents & Minors
Star Discount Chemist,Chemist & Pharmacy Stores,Shop 29-31 Booval Fair Shopping Centre Cnr Station and Brisbane Rd,Booval,QLD,4304,(07) 3281 7499,http://stardiscountchemist.com.au,,,-27.613775,152.789527,,,,,,Active,42 480 086 042,Business Name,AUS,Independents & Minors,Independents & Minors,Independents & Minors
Stradbroke Pharmacy,Chemist & Pharmacy Stores,Ballow Rd,Dunwich,QLD,4183,(07) 3409 9080,,,,-27.500561,153.403558,,,,,,Active,55 130 394 606,Business Name,AUS,Independents & Minors,Independents & Minors,Independents & Minors
Strathfield Boulevarde Pharmacy,Chemist & Pharmacy Stores,25 The Boulevarde St,Strathfield,NSW,2135,(02) 9746 6024,,,,-33.873256,151.093879,,,,,,Active,78 623 939 962,Business Name,AUS,Independents & Minors,Independents & Minors,Independents & Minors
Sunshine City Pharmacy,Chemist & Pharmacy Stores,423 Ballarat Rd,Sunshine,VIC,3020,(03) 9312 3005,,,,-37.77881,144.841294,,,,,,Active,45 808 338 393,Other Name,AUS,Independents & Minors,Independents & Minors,Independents & Minors
Tarneit Pharmacy,Chemist & Pharmacy Stores,Shop 1 2 412 Derrimut Rd,Tarneit,VIC,3029,(03) 8742 7717,,aimay@hcpharmacy.com.au,,-37.847315,144.68991,56 984 779 193,,21-50,2006,Customer focused,Active,89 519 676 045,Business Name,AUS,Independents & Minors,Independents & Minors,Independents & Minors
Templestowe Pharmacy,Chemist & Pharmacy Stores,21A- 23 Anderson St,Templestowe,VIC,3106,(03) 9846 1284,,,,-37.75764,145.12979,,,,,,Active,69 668 611 412,Other Name,AUS,Independents & Minors,Independents & Minors,Independents & Minors
Terry White Chemists Highfields,Chemist & Pharmacy Stores,Shop 10 Highfields Village Shopping Cntr Rogers Rd,Highfields,QLD,4352,(07) 4615 4426,www.terrywhitechemists.com.au,helpdesk@terrywhitechemists.com.au,,-27.4637219,151.9537772,79 152 203 953,152 203 953,1-Oct,,,Active,79 152 203 953,Business Name,AUS,Terry White,EBO,EBO
TerryWhite Chemmart Brimbank,Chemist & Pharmacy Stores,74 Neale Rd,Albanvale,VIC,3021,(03) 9363 6065,https://www.terrywhitechemmart.com.au/,,,-37.75071,144.772265,,,,,,Active,62 604 934 849,Business Name,AUS,Terry White,EBO,EBO
THE PHARMACY ON FRANKLIN,Chemist & Pharmacy Stores,18-20 Franklin St,Griffith,ACT,2603,(02) 6162 0007,http://www.thepharmacynetwork.com.au/,,,-35.320314,149.132913,,,,,,Active,76 013 667 102,Business Name,AUS,Independents & Minors,Independents & Minors,Independents & Minors
THE PHARMACY ON FRANKLIN,Chemist & Pharmacy Stores,"18-20 Franklin St, Manuka",Griffith,ACT,2603,(02) 6162 0007,http://www.thepharmacynetwork.com.au/,tpof1@develin.com.au,,-35.320314,149.132913,,,,,,Active,76 013 667 102,Business Name,AUS,Independents & Minors,Independents & Minors,Independents & Minors
Think Pharmacy Kedron,Chemist & Pharmacy Stores,136 Gympie Rd,Kedron,QLD,4031,(07) 3357 6924,www.thinkpharmacy.com.au,kedronmanager@thinkpharmacy.com.au,,-27.411242,153.033057,25 100 116 649,,201-500,2014,,Active,40 025 388 342,Other Name,AUS,Independents & Minors,Independents & Minors,Independents & Minors
Toowong Discount Drug Store,Chemist & Pharmacy Stores,"Head Office, 56-58 Sherwood Rd",Toowong,QLD,4066,(07) 3720 5500,www.discountdrugstores.com.au,forestlakes@discountdrugstores.com.au,,-27.484745,152.990923,,,,2001,,Active,53 959 013 992,Other Name,AUS,DDS,SIG,Mergeco
Trangie Pharmacy,Chemist & Pharmacy Stores,54 Dandaloo St,Trangie,NSW,2823,(02) 6888 7285,,,,-32.033482,147.982297,41 797 237 379,,,,,Active,43 723 042 079,Other Name,AUS,Independents & Minors,Independents & Minors,Independents & Minors
Trentham Pharmacy,Chemist & Pharmacy Stores,43A High St,Trentham,VIC,3458,(03) 5424 1000,,,,-37.389004,144.3227,,,,,,Active,33 591 849 693,Other Name,AUS,Independents & Minors,Independents & Minors,Independents & Minors
Tufnell Road Pharmacy,Chemist & Pharmacy Stores,183 Tufnell Rd,Banyo,QLD,4014,(07) 3267 5034,,tufnellrd@hotmail.com,,-27.374576,153.07653,34 270 786 455,,,,,Active,64 340 519 425,Trading Name,AUS,Independents & Minors,Independents & Minors,Independents & Minors
United Chemists Port Broughton,Chemist & Pharmacy Stores,32 Mackay St,Port Broughton,SA,5522,(08) 8635 2205,,,,-33.599552,137.930878,,,,,,Active,77 038 566 792,Business Name,AUS,Independents & Minors,Independents & Minors,Independents & Minors
Vermont Pharmacy,Chemist & Pharmacy Stores,10 Boronia Rd,Vermont,VIC,3133,(03) 9874 3288,,,,-37.836712,145.195483,,,,,,Active,39 593 830 775,Business Name,AUS,Independents & Minors,Independents & Minors,Independents & Minors
Vina Health Pharmacy,Chemist & Pharmacy Stores,233 Canley Vale Rd,Canley Heights,NSW,2166,(02) 9723 9733,,,,-33.883331,150.925041,,,,,,Active,98 565 372 748,Business Name,AUS,Independents & Minors,Independents & Minors,Independents & Minors
Wandin North Pharmacy,Chemist & Pharmacy Stores,Shop 4 362 Warburton Hwy,Wandin North,VIC,3139,(03) 5964 2274,https://www.facebook.com/WandinNorthPharmacy/,wandin@pharmacyalliance.net,,-37.779663,145.427251,73 169 288 117,,1-Oct,,,Active,98 527 021 176,Other Name,AUS,Independents & Minors,Independents & Minors,Independents & Minors
Waterford Plaza Chemist,Chemist & Pharmacy Stores,Shop 5/ Waterford Plaza Shopping Centre/,Karawara,WA,6152,(08) 9313 2133,,,,-32.0115164,115.88425,,,,,,Active,58 445 508 768,Business Name,AUS,Independents & Minors,Independents & Minors,Independents & Minors
Waterford Plaza Discount Drug Store,Chemist & Pharmacy Stores,Shop 5 6C Waterford Plaza SC 213 Kent St,Karawara,WA,6152,(08) 9313 2133,www.discountdrugstores.com.au,Waterfordplaza@discountdrugstores.com.au,,-32.008308,115.887976,,,,2001,,Active,58 445 508 768,Business Name,AUS,DDS,SIG,Mergeco
Wattletree Pharmacy,Chemist & Pharmacy Stores,284 Wattletree Rd,Malvern East,VIC,3145,(03) 9509 2157,,,,-37.86421,145.04041,,,,,,Active,41 785 891 332,Trading Name,AUS,Independents & Minors,Independents & Minors,Independents & Minors
Wellington Point Discount Drug Store,Chemist & Pharmacy Stores,Shop 5 685 Old Cleveland Rd East,Wellington Point,QLD,4160,(07) 3053 2410,Website,wellingtonpoint@discountdrugstores.com.au,,-27.509319,153.235718,,,,,,Active,94 177 668 946,Trading Name,AUS,DDS,SIG,Mergeco
West Lakes Chem-Plus,Chemist & Pharmacy Stores,Bartley Shopping Cntr Shop 5 3 Bartley Tce,Semaphore Park,SA,5019,(08) 8449 8302,www.chemplus.com.au,westlakes@chemplus.com.au,,-34.852345,138.493571,53 540 626 620,008 274 557,,,Professional ethics and service,Active,53 540 626 620,Trading Name,AUS,Independents & Minors,Independents & Minors,Independents & Minors
West Perth Pharmacy,Chemist & Pharmacy Stores,1260 Hay St,West Perth,WA,6005,(08) 9321 8883,https://greenleafpharmacies.com.au/find-a-pharmacy/west-perth-pharmacy/,westperthpharmacy@westnet.com.au,,-31.947774,115.840723,79 180 562 610,,,,,Active,27 358 768 845,Business Name,AUS,Independents & Minors,Independents & Minors,Independents & Minors
Westmeadows Pharmacy,Chemist & Pharmacy Stores,34 Fawkner St,Westmeadows,VIC,3049,(03) 9338 4894,https://www.cincottachemist.com.au/westmeadows,,,-37.67712,144.88683,,,,,,Active,23 551 396 736,Business Name,AUS,Independents & Minors,Independents & Minors,Independents & Minors
Woodberry Community Chemist,Chemist & Pharmacy Stores,Shop 4/ 32 Kookburra Parade,Woodberry,NSW,2322,(02) 4966 2484,,,,-32.794523,151.665062,,,,,,Active,42 605 174 007,Business Name,AUS,Independents & Minors,Independents & Minors,Independents & Minors
Woodford Pharmacy,Chemist & Pharmacy Stores,93 Archer St,Woodford,QLD,4514,(07) 5496 1073,,,,-26.95333,152.77829,,,,,,Active,16 919 423 915,Trading Name,AUS,Independents & Minors,Independents & Minors,Independents & Minors
Woodgate Beach Pharmacy,Chemist & Pharmacy Stores,Shop 1/ 18 Frizzels Rd,Woodgate,QLD,4660,(07) 4126 5228,,,,-25.097397,152.548071,,,,,,Active,46 119 224 234,Other Name,AUS,Independents & Minors,Independents & Minors,Independents & Minors
Woy Woy Pharmacy,Chemist & Pharmacy Stores,,TASCOTT,NSW,2250,(02) 4341 1101,,kuochwoywoy@gmail.com,,-33.3014995,151.1925126,21 034 061 445,,Nov-20,,,Active,21 034 061 445,Business Name,AUS,Independents & Minors,Independents & Minors,Independents & Minors
Xtreme Chemist Toongabbie,Chemist & Pharmacy Stores,Shop 6 Claudia Rd,Toongabbie,NSW,2146,(02) 9636 4808,,,,-33.79474875,150.9343681,,,,,,Active,57 791 358 865,Business Name,AUS,Independents & Minors,Independents & Minors,Independents & Minors
Your Community Pharmacy Newport,Chemist & Pharmacy Stores,Shop 3-5/ 1 Kalinya St,Newport,NSW,2106,(02) 9999 1186,,,,-33.66056,151.30868,,,,,,Active,69 628 066 802,Business Name,AUS,Independents & Minors,Independents & Minors,Independents & Minors
Your Discount Chemist Port Macquarie,Chemist & Pharmacy Stores,119 Horton St,Port Macquarie,NSW,2444,(02) 6583 2134,http://www.yourdiscountchemist.com.au/,,,-31.432167,152.907942,,,,,,Active,22 168 653 610,Business Name,AUS,Independents & Minors,Independents & Minors,Independents & Minors
Zest Pharmacy Coolamon,Chemist & Pharmacy Stores,7A Coolamon Blv,Ellenbrook,WA,6069,(08) 6296 3433,,,,-31.778438,115.975706,,,,,,Active,12 858 984 467,Business Name,AUS,Independents & Minors,Independents & Minors,Independents & Minors
National Pharmacies,Chemist & Pharmacy Stores,Golden Grove Village Shop 74 The Golden Way,Golden Grove,SA,5125,(08) 8251 2946,https://www.nationalpharmacies.com.au,"weborder@fsma.com.au,ggv@fsma.com.au",,-34.786401,138.703236,,,,,,Active,69 088 347 602,Business Name,AUS,National Pharmacies,Nat Pharm,Nat Pharm
National Pharmacies,Chemist & Pharmacy Stores,2A Mansfield Rd,Blakeview,SA,5114,(08) 8223 0383,https://www.nationalpharmacies.com.au,"weborder@fsma.com.au,blv@fsma.com.au",,-34.679632,138.702924,,,,,,Active,69 088 347 602,Business Name,AUS,National Pharmacies,Nat Pharm,Nat Pharm
National Pharmacies,Chemist & Pharmacy Stores,"Burntbridge Shopping Centre Shop 6 and 8a, 434 Maroondah Hwy",Croydon,VIC,3136,(03) 9870 5936,https://www.nationalpharmacies.com.au,"weborder@fsma.com.au,bbg@fsma.com.au",,-37.797054,145.256829,,,,,,Active,69 088 347 602,Business Name,AUS,National Pharmacies,Nat Pharm,Nat Pharm
National Pharmacies,Chemist & Pharmacy Stores,"Shop 5, Barker Plaza Cnr Hutchinson and Morphett St",Mt Barker,SA,5251,(08) 8391 0243,www.nationalpharmacies.com.au,"weborder@fsma.com.au,fnd@fsma.com.au",,-35.065768,138.858136,,,,,,Active,69 088 347 602,Business Name,AUS,National Pharmacies,Nat Pharm,Nat Pharm
National Pharmacies,Chemist & Pharmacy Stores,156 The Parade,Norwood,SA,5067,(08) 8431 1894,www.nationalpharmacies.com.au,"weborder@fsma.com.au,fnd@fsma.com.au",,-34.921499,138.634934,,,,,,Active,69 088 347 602,Business Name,AUS,National Pharmacies,Nat Pharm,Nat Pharm
National Pharmacies,Chemist & Pharmacy Stores,The Findon Shopping Centre 303 Grange Rd,Findon,SA,5023,(08) 8356 7619,www.nationalpharmacies.com.au,"weborder@fsma.com.au,fnd@fsma.com.au",,-34.905002,138.531254,,,,,,Active,69 088 347 602,Business Name,AUS,National Pharmacies,Nat Pharm,Nat Pharm
Pharmacy NEO Malvern Central,Chemist & Pharmacy Stores,"Shop 7, Malvern Central Shopping Centre",Malvern,VIC,3144,(03) 9509 8888,http://pharmacyneo.com.au/,"towerhill@pharmacyneo.com.au,portfairy@pharmacyneo.com.au,malverncentral@pharmacyneo.com.au",,-37.862072,145.028335,11 307 880 793,,1-Oct,,Family owned and operated pharmacists,Active,73 614 656 012,Business Name,AUS,Independents & Minors,Independents & Minors,Independents & Minors
Chemtronics Biomedical Engineering,Chemist & Pharmacy Stores,99/ 45 Gilby Rd,Mt Waverley,VIC,3149,(03) 9824 4100,www.chemtronics.com.au,"service@chemtronics.com.au,",,-37.89782,145.13404,,,,,,Active,33 370 684 005,Business Name,AUS,Independents & Minors,Independents & Minors,Independents & Minors
Sea Lake Pharmacy,Chemist & Pharmacy Stores,100 Best St,Sea Lake,VIC,3533,(03) 5070 1003,https://sealakepharmacy.wixsite.com/mysite,sealakepharmacy@gmail.com,,-35.504704,142.851123,,,,,,Active,69 848 209 310,Other Name,AUS,Independents & Minors,Independents & Minors,Independents & Minors
Blooms The Chemist,Chemist & Pharmacy Stores,"Shop 120-121, Dapto Mall, 75 Princes Hwy",Dapto,NSW,2530,(02) 4262 2122,https://www.bloomsthechemist.com.au,"privacy@bloomsthechemist.com.au,help@bloomsthechemist.com.au,dapto@blooms.net.au",,-34.494864,150.795176,,,,,,Active,64 003 584 718,Business Name,AUS,Blooms,Blooms,Blooms
Blooms The Chemist,Chemist & Pharmacy Stores,"Shop 115, Tweed City Shopping Centre, 54 Minjungbal Dr",Tweed Heads South,NSW,2486,(07) 5524 4974,https://www.bloomsthechemist.com.au,"privacy@bloomsthechemist.com.au,help@bloomsthechemist.com.au,tweedcitycentral@blooms.net.au",,-28.20114,153.54587,,,,,,Active,64 003 584 718,Business Name,AUS,Blooms,Blooms,Blooms
Blooms The Chemist,Chemist & Pharmacy Stores,"Shop Mm 0.11-mm 0.12 Bankstown Central, 1 North Tce",Bankstown,NSW,2200,(02) 9709 2831,https://www.bloomsthechemist.com.au,"privacy@bloomsthechemist.com.au,help@bloomsthechemist.com.au,bankstowngrandmarket@blooms.net.au",,-33.916575,151.038622,,,,,,Active,64 003 584 718,Business Name,AUS,Blooms,Blooms,Blooms
Blooms The Chemist,Chemist & Pharmacy Stores,"Shop 406, Stockland Bundaberg, Takalvan St",Bundaberg West,QLD,4670,(07) 4152 5088,https://www.bloomsthechemist.com.au/,"privacy@bloomsthechemist.com.au,help@bloomsthechemist.com.au,bundaberg@blooms.net.au",,-24.875088,152.332017,,,,,,Active,64 003 584 718,Business Name,AUS,Blooms,Blooms,Blooms
Blooms The Chemist,Chemist & Pharmacy Stores,Shop Mm 01 Mt Ommaney Centre 171 Dandenong Rd,Mt Ommaney,QLD,4074,(07) 3376 8788,https://www.bloomsthechemist.com.au/,"privacy@bloomsthechemist.com.au,help@bloomsthechemist.com.au,",,-27.549562,152.938851,,,,,,Active,64 003 584 718,Business Name,AUS,Blooms,Blooms,Blooms
Blooms The Chemist,Chemist & Pharmacy Stores,Penrith Plaza Westfield Shop 110-114 585 High St,Penrith,NSW,2750,(02) 4721 8117,https://www.bloomsthechemist.com.au/,"privacy@bloomsthechemist.com.au,help@bloomsthechemist.com.au,penrithplaza@blooms.net.au",,-33.751059,150.692168,,,,,,Active,64 003 584 718,Business Name,AUS,Blooms,Blooms,Blooms
Blooms The Chemist,Chemist & Pharmacy Stores,222 Banna Ave,Griffith,NSW,2680,(02) 6962 2527,https://www.bloomsthechemist.com.au/,"privacy@bloomsthechemist.com.au,help@bloomsthechemist.com.au,griffith@blooms.net.au",,-34.288588,146.047872,,,,,,Active,64 003 584 718,Business Name,AUS,Blooms,Blooms,Blooms
Blooms The Chemist,Chemist & Pharmacy Stores,559 Crown St,Surry Hills,NSW,2010,(02) 9310 2631,https://www.bloomsthechemist.com.au/,"privacy@bloomsthechemist.com.au,help@bloomsthechemist.com.au,enquiries@blooms.net.au",,-33.8907,151.212763,,,,,,Active,64 003 584 718,Business Name,AUS,Blooms,Blooms,Blooms
Albany Amcal Chemist,Chemist & Pharmacy Stores,262- 264 York St,Albany,WA,6330,1300 790 618,www.amcal.com.au,"platinum.service@signet.com.au,info@amcalrewards.com.au,platinum.service@signet.com.au",,-35.02229,117.88351,67 257 958 202,,,1980,National Diabetes Services Scheme (NDSS),Active,71 622 643 850,Business Name,AUS,Amcal,SIG,Mergeco
Amcal,Chemist & Pharmacy Stores,Specialist Medical Centre Suite G 05 343-345 Pacific Hwy,Coffs Harbour,NSW,2450,(02) 6652 2336,https://www.amcal.com.au/store-locator/nsw/amcal-plus-pharmacy-coffs-harbour?storeId=10301,"platinum.service@signet.com.au,info@amcalrewards.com.au,",,-30.315963,153.093036,,,,,,Active,44 004 132 923,Business Name,AUS,Amcal,SIG,Mergeco
Amcal,Chemist & Pharmacy Stores,111 Lamb St,Murgon,QLD,4605,(07) 4168 1022,https://www.amcal.com.au/store-locator/amcal-pharmacy-murgon,"platinum.service@signet.com.au,info@amcalrewards.com.au,",,-26.241657,151.939734,,,,,,Active,44 004 132 923,Business Name,AUS,Amcal,SIG,Mergeco
Amcal,Chemist & Pharmacy Stores,Shop 10 141 Brisbane St,Beaudesert,QLD,4285,(07) 5541 0998,https://www.amcal.com.au/store-locator/amcal-plus-pharmacy-beaudesert-central,"platinum.service@signet.com.au,info@amcalrewards.com.au,",,-27.98537,152.99628,,,,,,Active,44 004 132 923,Business Name,AUS,Amcal,SIG,Mergeco
Amcal,Chemist & Pharmacy Stores,"Shop 101a Castletown Shopping Centre Woolcock St Andamp, Kings Rd",Hyde Park,QLD,4812,(07) 4772 0888,https://www.amcal.com.au/,"platinum.service@signet.com.au,info@amcalrewards.com.au,",,-19.271209,146.792694,,,,,,Active,44 004 132 923,Business Name,AUS,Amcal,SIG,Mergeco
Amcal,Chemist & Pharmacy Stores,Level B 2 Shop 8 766 Toorak Rd,Glen Iris,VIC,3146,(03) 9822 2342,https://www.amcal.com.au/,"platinum.service@signet.com.au,info@amcalrewards.com.au,",,-37.846117,145.045613,,,,,,Active,44 004 132 923,Business Name,AUS,Amcal,SIG,Mergeco
Amcal,Chemist & Pharmacy Stores,Shop 2a - 184 Sydney Airport Domestic Terminal 2,Mascot,NSW,2020,(02) 9693 2131,https://www.amcal.com.au/,"platinum.service@signet.com.au,info@amcalrewards.com.au,",,-33.929734,151.195145,,,,,,Active,44 004 132 923,Business Name,AUS,Amcal,SIG,Mergeco
Amcal,Chemist & Pharmacy Stores,476 South Arm Rd,Lauderdale,TAS,7021,(03) 6248 7355,https://www.amcal.com.au,"platinum.service@signet.com.au,info@amcalrewards.com.au,",,-42.907843,147.484157,,,,,,Active,44 004 132 923,Business Name,AUS,Amcal,SIG,Mergeco
Amcal,Chemist & Pharmacy Stores,Kenmore Village Shop 33/34 9 Brookfield Rd,Kenmore,QLD,4069,(07) 3378 1377,https://www.amcal.com.au,"platinum.service@signet.com.au,info@amcalrewards.com.au,info@amcalrewards.com.au",,-27.506018,152.938992,,,,,,Active,44 004 132 923,Business Name,AUS,Amcal,SIG,Mergeco
Amcal,Chemist & Pharmacy Stores,1d/ 173-199 Pioneer Rd,Waurn Pond,VIC,3216,(03) 5243 1050,https://www.amcal.com.au,"platinum.service@signet.com.au,info@amcalrewards.com.au,",,-38.197991,144.318653,,,,,,Active,44 004 132 923,Business Name,AUS,Amcal,SIG,Mergeco
Amcal,Chemist & Pharmacy Stores,100 Main St,Greensborough,VIC,3088,(03) 9434 4333,https://www.amcal.com.au,"platinum.service@signet.com.au,info@amcalrewards.com.au,",,-37.703224,145.105472,,,,,,Active,44 004 132 923,Business Name,AUS,Amcal,SIG,Mergeco
Amcal,Chemist & Pharmacy Stores,St Helena Market Place Shop 3 214 Aqueduct Rd,St Helena,VIC,3088,(03) 9438 4333,https://www.amcal.com.au,"platinum.service@signet.com.au,info@amcalrewards.com.au,platinum.service@signet.com.au",,-37.685035,145.135854,,,,,,Active,44 004 132 923,Business Name,AUS,Amcal,SIG,Mergeco
Amcal,Chemist & Pharmacy Stores,Karama Shopping Plaza Shop 18-19 37 Kalymnos Dr,Karama,NT,0812,(08) 8945 0711,https://www.amcal.com.au,"platinum.service@signet.com.au,info@amcalrewards.com.au,info@amcalrewards.com.au",,-12.400974,130.915679,,,,,,Active,44 004 132 923,Business Name,AUS,Amcal,SIG,Mergeco
Amcal,Chemist & Pharmacy Stores,Shop 1 7 - 9 Burpengary Rd,Burpengary,QLD,4505,1800 500 760,www.amcal.com.au,"platinum.service@signet.com.au,info@amcalrewards.com.au,michael.smith@signet.com.au",,-27.16253,152.95822,,,,,,Active,44 004 132 923,Business Name,AUS,Amcal,SIG,Mergeco
Amcal,Chemist & Pharmacy Stores,237 Main Road Cnr Main and Canton Beach Roads,Toukley,NSW,2263,(02) 4396 4228,www.amcal.com.au,"platinum.service@signet.com.au,info@amcalrewards.com.au,toukley@amcal.com.au",,-33.26384,151.541016,,,,,,Active,44 004 132 923,Business Name,AUS,Amcal,SIG,Mergeco
Amcal,Chemist & Pharmacy Stores,368 Main Rd,Toukley,NSW,2263,(02) 4396 4785,www.amcal.com.au,"platinum.service@signet.com.au,info@amcalrewards.com.au,",,-33.266548,151.549456,,,,,,Active,44 004 132 923,Business Name,AUS,Amcal,SIG,Mergeco
Amcal,Chemist & Pharmacy Stores,Shop 2 Dromana Hub Shopping Centre 271 Point Nepean Road,Dromana,VIC,3936,(03) 5987 2022,http://www.amcal.com.au/,"platinum.service@signet.com.au,info@amcalrewards.com.au,platinum.service@signet.com.au",,-38.338958,144.95071,,,,,,Active,44 004 132 923,Business Name,AUS,Amcal,SIG,Mergeco
Belmont Amcal Chemist,Chemist & Pharmacy Stores,Shop 83 Belmont Forum Shopng Cntr,Belmont,WA,6104,1300 660 439,www.amcal.com.au,"platinum.service@signet.com.au,info@amcalrewards.com.au,belmontamcal@amcal.net.au",,-31.96672,115.93289,83 364 386 981,,,,,Active,83 364 386 981,Business Name,AUS,Amcal,SIG,Mergeco
TerryWhite Chemmart Rutherford,Chemist & Pharmacy Stores,PO Box 492,Rutherford,NSW,3320,(02) 4932 5155,www.amcal.com.au,"platinum.service@signet.com.au,info@amcalrewards.com.au,manager@twcmrutherford.com.au",,-32.716247,151.5269067,39 102 023 889,,51-100,,,Active,39 102 023 889,Business Name,AUS,Terry White,EBO,EBO
Guardian Pharmacy,Chemist & Pharmacy Stores,131 High St,Maryborough,VIC,3465,(03) 5461 1005,https://www.guardianpharmacies.com.au,"platinum.service@signet.com.au,",,-37.046441,143.737728,,,,,,Active,53 874 289 736,Other Name,AUS,Guardian,SIG,Mergeco
Guardian Pharmacy,Chemist & Pharmacy Stores,46 Cambridge Rd,Bellerive,TAS,7018,(03) 6244 3344,https://www.guardianpharmacies.com.au/,"platinum.service@signet.com.au,",,-42.8746,147.36749,,,,,,Active,53 874 289 736,Other Name,AUS,Guardian,SIG,Mergeco
Guardian Pharmacy,Chemist & Pharmacy Stores,238-240 Seaford Road,Seaford,SA,5169,(08) 7123 0828,https://www.guardianpharmacies.com.au/,"platinum.service@signet.com.au,",,-35.181548,138.47319,,,,,,Active,53 874 289 736,Other Name,AUS,Guardian,SIG,Mergeco
Guardian Pharmacy,Chemist & Pharmacy Stores,14-16 West St,Mt Isa City,QLD,4825,(07) 4743 2038,https://www.guardianpharmacies.com.au/,"platinum.service@signet.com.au,",,-20.726462,139.490674,,,,,,Active,53 874 289 736,Other Name,AUS,Guardian,SIG,Mergeco
Guardian Pharmacy,Chemist & Pharmacy Stores,192 Bridport,Albert Park,VIC,3206,(03) 9690 5515,https://www.guardianpharmacies.com.au/,"platinum.service@signet.com.au,",,-37.840924,144.953975,,,,,,Active,53 874 289 736,Other Name,AUS,Guardian,SIG,Mergeco
Guardian Pharmacy,Chemist & Pharmacy Stores,103 Cowabbie St North,Coolamon,NSW,2701,(02) 6927 3204,https://www.guardianpharmacies.com.au/,"platinum.service@signet.com.au,",,-34.814411,147.200416,,,,,,Active,53 874 289 736,Other Name,AUS,Guardian,SIG,Mergeco
Guardian Pharmacy,Chemist & Pharmacy Stores,55 Old Princes Highway Shop 18 Beaconsfield Plza,Beaconsfield,VIC,3807,(03) 9707 5187,www.guardianpharmacies.com.au,"platinum.service@signet.com.au,beaconsfield@guardianpharm.net",,-38.055454,145.385497,,,,,Health care solutions Australia wide,Active,53 874 289 736,Other Name,AUS,Guardian,SIG,Mergeco
Guardian Pharmacy,Chemist & Pharmacy Stores,178 High St,Wodonga,VIC,3690,(02) 6024 1411,www.guardianpharmacies.com.au,"platinum.service@signet.com.au,",,-36.122117,146.888425,,,,,,Active,53 874 289 736,Other Name,AUS,Guardian,SIG,Mergeco
Taylor Centre Pharmacy,Chemist & Pharmacy Stores,40 Annerley Rd,Woolloongabba,QLD,4102,(07) 3391 1396,www.guardianpharmacies.com.au,"platinum.service@signet.com.au,taylor.centre@nunet.com.au",,-27.488075,153.029038,,,,,,Active,41 620 610 540,Business Name,AUS,Independents & Minors,Independents & Minors,Independents & Minors
Optimal Pharmacy Plus Bella Vista,Chemist & Pharmacy Stores,"Shops 21 and 22, Circa Retail 1 Circa Bvd",Bella Vista,NSW,2153,(02) 9672 6855,https://optimalpharmacyplus.com.au/,"oppap@iinet.net.au,oppa@westnet.com.au,oppac@westnet.com.au,oppba@westnet.com.au,oppbeechboro@westnet.com.au,pharmacy@carineglades.com.au,oppc@westnet.com.au,oppd@westnet.com.au,oppdo@iinet.net.au,oppe@iinet.net.au,opphh@westnet.com.au,oppms@westnet.com.au,oppmi@westnet.com.au,oppn@westnet.com.au,oppq@westnet.com.au,oppsc@iinet.net.au,oppsl@iinet.net.au,oppsb@westnet.com.au,oppw@westnet.com.au,oppbv@iinet.net.au,oppco@westnet.com.au,opphhc@iinet.net.au,oppno@iinet.net.au,sc-oppwy@iinet.net.au,oppj@westnet.com.au,oppkk@iinet.net.au,oppr@iinet.net.au,oppstafford@iinet.net.au,oppap@iinet.net.auge,oppa@westnet.com.auge,oppac@westnet.com.auge,oppba@westnet.com.auge,oppc@westnet.com.auge,oppd@westnet.com.auge,oppdo@iinet.net.auge,oppe@iinet.net.auge,opphh@westnet.com.auge,oppms@westnet.com.auge,oppmi@westnet.com.auge,oppn@westnet.com.auge,oppq@westnet.com.auge,oppsc@iinet.net.auge,oppsl@iinet.net.auge,oppw@westnet.com.auge,oppbv@iinet.net.auge,oppco@westnet.com.auge,opphhc@iinet.net.auge,oppno@iinet.net.auge,sc-oppwy@iinet.net.auge,oppj@westnet.com.auge,oppkk@iinet.net.auge,oppr@iinet.net.auge,oppstafford@iinet.net.auge,",,-33.746074,150.953079,,,,,,Active,58 752 984 995,Business Name,AUS,Independents & Minors,Independents & Minors,Independents & Minors
Optimal Pharmacy Plus Raintrees,Chemist & Pharmacy Stores,"Shop 30, Raintrees Shopping Centre 1 Koch St",Manunda,QLD,4870,(07) 4053 3064,https://optimalpharmacyplus.com.au/,"oppap@iinet.net.au,oppa@westnet.com.au,oppac@westnet.com.au,oppba@westnet.com.au,oppbeechboro@westnet.com.au,pharmacy@carineglades.com.au,oppc@westnet.com.au,oppd@westnet.com.au,oppdo@iinet.net.au,oppe@iinet.net.au,opphh@westnet.com.au,oppms@westnet.com.au,oppmi@westnet.com.au,oppn@westnet.com.au,oppq@westnet.com.au,oppsc@iinet.net.au,oppsl@iinet.net.au,oppsb@westnet.com.au,oppw@westnet.com.au,oppbv@iinet.net.au,oppco@westnet.com.au,opphhc@iinet.net.au,oppno@iinet.net.au,sc-oppwy@iinet.net.au,oppj@westnet.com.au,oppkk@iinet.net.au,oppr@iinet.net.au,oppstafford@iinet.net.au,oppap@iinet.net.auge,oppa@westnet.com.auge,oppac@westnet.com.auge,oppba@westnet.com.auge,oppc@westnet.com.auge,oppd@westnet.com.auge,oppdo@iinet.net.auge,oppe@iinet.net.auge,opphh@westnet.com.auge,oppms@westnet.com.auge,oppmi@westnet.com.auge,oppn@westnet.com.auge,oppq@westnet.com.auge,oppsc@iinet.net.auge,oppsl@iinet.net.auge,oppw@westnet.com.auge,oppbv@iinet.net.auge,oppco@westnet.com.auge,opphhc@iinet.net.auge,oppno@iinet.net.auge,sc-oppwy@iinet.net.auge,oppj@westnet.com.auge,oppkk@iinet.net.auge,oppr@iinet.net.auge,oppstafford@iinet.net.auge,",,-16.926917,145.740817,,,,,,Active,26 880 026 316,Other Name,AUS,Independents & Minors,Independents & Minors,Independents & Minors
Cape Byron Compounding Chemist,Chemist & Pharmacy Stores,34 Ashmore Rd,Bundall,QLD,4217,(07) 5526 7052,http://www.byroncompounding.com.au,"michelle@byroncompounding.com.au,pharmacist@byroncompounding.com.au",,-28.011128,153.408735,,,,,,Active,56 656 090 675,Business Name,AUS,Independents & Minors,Independents & Minors,Independents & Minors
Cape Byron Compounding Chemist,Chemist & Pharmacy Stores,Shop 6/ 14 Middleton St,Byron Bay,NSW,2481,(02) 6685 6223,http://www.byroncompounding.com.au,"michelle@byroncompounding.com.au,pharmacist@byroncompounding.com.au",,-28.644498,153.614648,,,,,,Active,56 656 090 675,Business Name,AUS,Independents & Minors,Independents & Minors,Independents & Minors
Ipswich Road Medical Centre,Chemist & Pharmacy Stores,582 Ipswich Rd,Annerley,QLD,4103,(07) 3848 2447,https://www.ipn.com.au/gp/qld-annerley-ipswich-road-medical-centre/,"marketing@ipn.com.au,trina.mason@ipn.com.au,malvina.nordstrom@ipn.com.au,alison.nicolaides@ipn.com.au,anthony.kadi@ipn.com.au,paula.gyaneshwar@scs.com.au,heather.mcguigan@scs.com.au,hr@scs.com.au,info@ipnet.com.au,enquiries@ipn.com.au,",,-27.5143,153.031247,,,,,,Active,37 088 149 893,Business Name,AUS,Independents & Minors,Independents & Minors,Independents & Minors
Mawson Medical Centre,Chemist & Pharmacy Stores,390 Brighton Rd,Hove,SA,5048,(08) 8296 8336,https://www.ipn.com.au/gp/sa-hove-mawson-medical-centre/home/,"marketing@ipn.com.au,trina.mason@ipn.com.au,malvina.nordstrom@ipn.com.au,alison.nicolaides@ipn.com.au,anthony.kadi@ipn.com.au,paula.gyaneshwar@scs.com.au,heather.mcguigan@scs.com.au,hr@scs.com.au,info@ipnet.com.au,enquiries@ipn.com.au,mawson@ipn.com.au",,-35.012789,138.522988,,,,,,Active,37 088 149 893,Business Name,AUS,Independents & Minors,Independents & Minors,Independents & Minors
Julia Creek PHARMACY EXCELLENCE,Chemist & Pharmacy Stores,45 Burke St,Julia Creek,QLD,4823,(07) 4746 7073,https://www.pharmacyexcellence.com.au,"mark@pharmacyexcellence.com.au,mark@managementexcellence.com.au,mark@companyexcellence.com.au,juliacreek@pharmacyexcellence.com.au",,-20.656954,141.74417,,,,,617 146 577,Active,17 592 985 382,Business Name,AUS,Independents & Minors,Independents & Minors,Independents & Minors
Marysville PHARMACY EXCELLENCE,Chemist & Pharmacy Stores,19 Murchison St,Marysville,VIC,3779,(03) 5963 4224,pharmacyexcellence.com.au,"mark@pharmacyexcellence.com.au,mark@managementexcellence.com.au,mark@companyexcellence.com.au,marysville@pharmacyexcellence.com.au",,-37.510824,145.746663,17 592 985 382,,1-Oct,,617 146 577,Active,17 592 985 382,Business Name,AUS,Independents & Minors,Independents & Minors,Independents & Minors
MediAdvice Pharmacy,Chemist & Pharmacy Stores,1/136 Pendle Way,Pendle Hill,NSW,2145,(02) 9631 3688,http://www.mediadvice.com.au/,"mail@mediadvice.com.au,",,-33.802082,150.955232,,,,,,Active,77 199 226 577,Other Name,AUS,Independents & Minors,Independents & Minors,Independents & Minors
Star Pharmacy Sunbury,Chemist & Pharmacy Stores,79 Evans St,Sunbury,VIC,3429,(03) 9744 2644,www.starpharmacy.net.au,"kew@starpharmacy.net.au,middlepark@starpharmacy.net.au,sunbury@starpharmacy.net.au",,-37.580675,144.729185,,,,,,Active,66 908 521 680,Business Name,AUS,Independents & Minors,Independents & Minors,Independents & Minors
Pharmacy 777,Chemist & Pharmacy Stores,"Shop 155, Building 106 Curtin University Of Technology, Kent St",Bentley,WA,6102,(08) 9266 3784,www.pharmacyhelp.com.au,"karrathahelp@pharmacyhelp.com.au,mandurah@pharmacyhelp.com.au,curtin@pharmacy777.com.au",,-32.006513,115.888789,,,,,,Active,49 073 157 187,Business Name,AUS,Independents & Minors,Independents & Minors,Independents & Minors
Pharmacy Help,Chemist & Pharmacy Stores,"Sp 047 Karratha City Shopping Centre, 16 Sharpe Ave",Karratha,WA,6714,(08) 9185 1316,http://www.pharmacyhelp.com.au/index.html,"karrathahelp@pharmacyhelp.com.au,mandurah@pharmacyhelp.com.au,karrathahelp@pharmacyhelp.com.au",,-20.735619,116.846217,,,,,,Active,49 073 157 187,Business Name,AUS,Independents & Minors,Independents & Minors,Independents & Minors
Pharmacy Help,Chemist & Pharmacy Stores,"Peel Health Campus, 110 Lakes Rd,",Mandurah,WA,6210,(08) 9581 4833,www.pharmacyhelp.com.au,"karrathahelp@pharmacyhelp.com.au,mandurah@pharmacyhelp.com.au,mandurah@pharmacyhelp.com.au",,-32.53303,115.76435,,,,,,Active,49 073 157 187,Business Name,AUS,Independents & Minors,Independents & Minors,Independents & Minors
Owner,Chemist & Pharmacy Stores,416 Kingsway,Caringbah,NSW,2229,(02) 9066 8792,http://www.shirepharmacy.com.au,"jonpinhorn.typedesign@gmail.com,amkryukov@gmail.com,filler@godaddy.com,info@shirepharmacy.com.au,8792info@shirepharmacy.com.au,info@shirepharmacy.com.au",,-34.037408,151.117592,,,,,,Active,98 512 949 505,Trading Name,AUS,Independents & Minors,Independents & Minors,Independents & Minors
SuperChem Ballajura Pharmacy,Chemist & Pharmacy Stores,Suite 1 Illawarra Medical Centre 229 Illawarra Cres,Ballajura,WA,6066,(08) 9248 4586,https://superchem.com.au/,"info@superchem.com.au,",,-31.841211,115.895577,,,,,,Active,15 614 238 644,Business Name,AUS,Independents & Minors,Independents & Minors,Independents & Minors
Probiotec Limited,Chemist & Pharmacy Stores,83 Cherry Lane,Laverton North,VIC,3026,(03) 9278 7555,http://www.probiotec.com.au/,info@probiotec.com.au,,-37.836558,144.799636,,,,,,Active,91 075 170 151,Entity Name,AUS,Independents & Minors,Independents & Minors,Independents & Minors
777 Franchising Pty Ltd,Chemist & Pharmacy Stores,"Shop 9, Port Hedland Boulevard Shopping Centre, 150 Anderson St",Port Hedland,WA,6721,(08) 9173 1350,https://www.pharmacy777.com.au/,"info@pharmacy777.com.au,porthedland@pharmacy777.com.au",,-20.311831,118.608782,,,,,,Active,54 162 625 765,Entity Name,AUS,Independents & Minors,Independents & Minors,Independents & Minors
777 Franchising Pty Ltd,Chemist & Pharmacy Stores,777 Canning Hwy,Applecross,WA,6153,(08) 9364 8777,https://www.pharmacy777.com.au/,"info@pharmacy777.com.au,applecross@pharmacy777.com.au",,-32.020385,115.834568,,,,,,Active,54 162 625 765,Entity Name,AUS,Independents & Minors,Independents & Minors,Independents & Minors
777 Franchising Pty Ltd,Chemist & Pharmacy Stores,"Units 3-5, Jindalee Commercial Centre, 6 Jindalee Blvd",Jindalee,WA,6036,(08) 9562 3790,https://www.pharmacy777.com.au/,"info@pharmacy777.com.au,jindalee@pharmacy777.com.au",,-31.648962,115.695487,,,,,,Active,54 162 625 765,Entity Name,AUS,Independents & Minors,Independents & Minors,Independents & Minors
777 Franchising Pty Ltd,Chemist & Pharmacy Stores,8/ 2 Captiva App,Butler,WA,6036,(08) 9562 1397,https://www.pharmacy777.com.au/,"info@pharmacy777.com.au,butler@pharmacy777.com.au",,-31.653179,115.713914,,,,,,Active,54 162 625 765,Entity Name,AUS,Independents & Minors,Independents & Minors,Independents & Minors
777 Franchising Pty Ltd,Chemist & Pharmacy Stores,"Connolly Shopping Centre, 5/1 Glenelg Pl",Connolly,WA,6027,(08) 9300 1233,https://www.pharmacy777.com.au/,"info@pharmacy777.com.au,connolly@pharmacy777.com.au",,-31.753354,115.750824,,,,,,Active,54 162 625 765,Entity Name,AUS,Independents & Minors,Independents & Minors,Independents & Minors
Pharmacy 777,Chemist & Pharmacy Stores,"Shop 33 and 34, Karratha Village Shopping Centre, 2608 Sharpe Ave",Karratha,WA,6714,(08) 9144 4007,http://www.pharmacy777.com.au,"info@pharmacy777.com.au,karratha@pharmacy777.com.au",,-20.734904,116.844711,,,,,,Active,49 073 157 187,Business Name,AUS,Independents & Minors,Independents & Minors,Independents & Minors
Pharmacy 777,Chemist & Pharmacy Stores,"Shop 43, Stockland Baldivis, Safety Bay Road",Baldivis,WA,6171,(08) 9523 0006,http://www.pharmacy777.com.au,"info@pharmacy777.com.au,",,-32.330926,115.82167,,,,,,Active,49 073 157 187,Business Name,AUS,Independents & Minors,Independents & Minors,Independents & Minors
Pharmacy 777,Chemist & Pharmacy Stores,Shop 7/ 36 Eric St,Cottesloe,WA,6011,(08) 9383 4161,http://www.pharmacy777.com.au,"info@pharmacy777.com.au,carnarvon@pharmacy777.com.au",,-31.989327,115.757233,,,,,,Active,49 073 157 187,Business Name,AUS,Independents & Minors,Independents & Minors,Independents & Minors
Pharmacy 777,Chemist & Pharmacy Stores,Unit 4 2 Sheoak Rd,Maddington,WA,6109,(08) 9459 6179,https://www.pharmacy777.com.au/,"info@pharmacy777.com.au,maddington@pharmacy777.com.au",,-32.054416,116.001766,,,,,,Active,49 073 157 187,Business Name,AUS,Independents & Minors,Independents & Minors,Independents & Minors
Pharmacy 777,Chemist & Pharmacy Stores,2/294 Grand Promenade,Dianella,WA,6059,(08) 9276 2376,https://www.pharmacy777.com.au/,"info@pharmacy777.com.au,dianella@pharmacy777.com.au",,-31.901523,115.877487,,,,,,Active,49 073 157 187,Business Name,AUS,Independents & Minors,Independents & Minors,Independents & Minors
Pharmacy 777,Chemist & Pharmacy Stores,Shop 1 101 Bussell Hwy,Margaret River,WA,6285,(08) 9757 3688,www.pharmacy777.com.au,"info@pharmacy777.com.au,margaretriver@pharmacy777.com.au",,-33.94911,115.0746,,,,,,Active,49 073 157 187,Business Name,AUS,Independents & Minors,Independents & Minors,Independents & Minors
Pharmacy 777,Chemist & Pharmacy Stores,300 South St,Hilton,WA,6163,(08) 9337 7400,www.pharmacy777.com.au,"info@pharmacy777.com.au,hilton@pharmacy777.com.au",,-32.062827,115.780873,,,,,,Active,49 073 157 187,Business Name,AUS,Independents & Minors,Independents & Minors,Independents & Minors
Pharmacy 777,Chemist & Pharmacy Stores,7/ 223 Rockingham Rd,Spearwood,WA,6163,(08) 9418 6777,www.pharmacy777.com.au,"info@pharmacy777.com.au,spearwood@pharmacy777.com.au",,-32.09437,115.78241,,,,,,Active,49 073 157 187,Business Name,AUS,Independents & Minors,Independents & Minors,Independents & Minors
Pharmacy 777,Chemist & Pharmacy Stores,10/ 61 Apsley Rd,Willetton,WA,6155,(08) 9457 1777,www.pharmacy777.com.au,"info@pharmacy777.com.au,willetton@pharmacy777.com.au",,-32.04849,115.88046,,,,,,Active,49 073 157 187,Business Name,AUS,Independents & Minors,Independents & Minors,Independents & Minors
Pharmacy 777,Chemist & Pharmacy Stores,1 40 Ardross St,Applecross,WA,6153,(08) 9364 1986,www.pharmacy777.com.au,"info@pharmacy777.com.au,applecrossvillage@pharmacy777.com.au",,-32.010678,115.835494,,,,,,Active,49 073 157 187,Business Name,AUS,Independents & Minors,Independents & Minors,Independents & Minors
Pharmacy 777,Chemist & Pharmacy Stores,Rowethorpe Retirement Village Jacaranda Ave,Bentley,WA,6102,(08) 9458 2115,www.pharmacy777.com.au,"info@pharmacy777.com.au,rowethorpe@pharmacy777.com.au",,-32.006567,115.901289,,,,,,Active,49 073 157 187,Business Name,AUS,Independents & Minors,Independents & Minors,Independents & Minors
Pharmacy 777,Chemist & Pharmacy Stores,"Shop 17, Centrepoint Shopping Centre, Great Eastern Hwy",Midland,WA,6056,(08) 9274 7767,www.pharmacy777.com.au,"info@pharmacy777.com.au,midland@pharmacy777.com.au",,-31.89033,116.00154,,,,,,Active,49 073 157 187,Business Name,AUS,Independents & Minors,Independents & Minors,Independents & Minors
Pharmacy 777,Chemist & Pharmacy Stores,1 King William St,Bayswater,WA,6053,(08) 9371 8342,www.pharmacy777.com.au,"info@pharmacy777.com.au,bayswater@pharmacy777.com.au",,-31.918791,115.912112,,,,,,Active,49 073 157 187,Business Name,AUS,Independents & Minors,Independents & Minors,Independents & Minors
Pharmacy 777,Chemist & Pharmacy Stores,Maylands Park Shopping Centre Shop 3 238 Guildford Rd,Maylands,WA,6051,(08) 9271 5659,www.pharmacy777.com.au,"info@pharmacy777.com.au,maylands@pharmacy777.com.au",,-31.930067,115.896119,,,,,,Active,49 073 157 187,Business Name,AUS,Independents & Minors,Independents & Minors,Independents & Minors
Pharmacy 777,Chemist & Pharmacy Stores,Shop 145 36 Ocean Keys Boulevarde,Clarkson,WA,6030,(08) 9407 7093,www.pharmacy777.com.au,"info@pharmacy777.com.au,clarkson@pharmacy777.com.au",,-31.691076,115.717686,,,,,,Active,49 073 157 187,Business Name,AUS,Independents & Minors,Independents & Minors,Independents & Minors
Pharmacy 777,Chemist & Pharmacy Stores,"Shop 42, Westfield Whitford City, Whitfords Ave",Hillarys,WA,6025,(08) 9401 6669,www.pharmacy777.com.au,"info@pharmacy777.com.au,whitfordcity@pharmacy777.com.au",,-31.796288,115.750876,,,,,,Active,49 073 157 187,Business Name,AUS,Independents & Minors,Independents & Minors,Independents & Minors
Pharmacy 777,Chemist & Pharmacy Stores,Shop 8-10 Glendalough Shopping Centre Cnr Harborne St and Jon Sanders Drv,Glendalough,WA,6016,(08) 9444 5551,www.pharmacy777.com.au,"info@pharmacy777.com.au,glendalough@pharmacy777.com.au",,-31.92243,115.8192,,,,,,Active,49 073 157 187,Business Name,AUS,Independents & Minors,Independents & Minors,Independents & Minors
Pharmacy 777,Chemist & Pharmacy Stores,274 Cambridge St,Wembley,WA,6014,(08) 9387 3984,www.pharmacy777.com.au,"info@pharmacy777.com.au,wembley@pharmacy777.com.au",,-31.940464,115.817257,,,,,,Active,49 073 157 187,Business Name,AUS,Independents & Minors,Independents & Minors,Independents & Minors
Cooleman Court Pharmacy,Chemist & Pharmacy Stores,"Shop 5015, Cooleman Court Brierly Street",Weston,ACT,2611,(02) 6288 1867,www.coolemancourt.com.au,"info@coolemancourt.com.au,u003einfo@coolemancourt.com.au,rmcooleman@lifepharmacygroup.com.au",,-35.341419,149.053093,,,,,,Active,25 153 807 138,Trading Name,AUS,Independents & Minors,Independents & Minors,Independents & Minors
Coburg UFS Pharmacy,Chemist & Pharmacy Stores,501 Sydney Rd,Coburg,VIC,3058,(03) 9354 1068,http://www.communitypharmacy.com.au,"info@communitypharmacy.com.au,",,-37.7411,144.96634,,,,,,Active,57 087 822 295,Business Name,AUS,Independents & Minors,Independents & Minors,Independents & Minors
Community Pharmacy,Chemist & Pharmacy Stores,355 Glen Huntly Rd,Elsternwick,VIC,3185,(03) 9528 5127,www.communitypharmacy.com.au,"info@communitypharmacy.com.au,elsternwick@communitypharmacy.com.au",,-37.884394,145.003583,,,,1915,,Active,36 585 618 744,Business Name,AUS,Independents & Minors,Independents & Minors,Independents & Minors
Community Pharmacy,Chemist & Pharmacy Stores,22 Hamilton Pl,Mt Waverley,VIC,3149,,www.communitypharmacy.com.au,"info@communitypharmacy.com.au,elsternwick@communitypharmacy.com.au",,-37.87573,145.12855,,,,1915,,Active,36 585 618 744,Business Name,AUS,Independents & Minors,Independents & Minors,Independents & Minors
Community Pharmacy,Chemist & Pharmacy Stores,4 Wantirna Rd,Ringwood,VIC,3134,,www.communitypharmacy.com.au,"info@communitypharmacy.com.au,elsternwick@communitypharmacy.com.au",,-37.817406,145.227016,,,,1915,,Active,36 585 618 744,Business Name,AUS,Independents & Minors,Independents & Minors,Independents & Minors
